hotel_id,hotel_name,chain_id,latitude,longitude
391,Extended Stay America - Fairbanks - Old Airport Way,72,64.83538,-147.8233
392,Hilton Hangzhou Qiandao Lake Resort,3,29.60819,119.0729
393,Taj Lands End,-1,19.04391,72.81879
395,Cambridge Suites Hotel Sydney,-1,46.13663,-60.19551
396,Tamanu Beach,14,-18.84213,-159.78794
397,The Inn at the Tides,-1,38.32836,-123.04297
398,The Riverhouse Hotel & Convention Center,-1,44.08132,-121.30516
399,San Jose Airport Inn,-1,37.36243,-121.91002
401,Gateway Hotel and Conference Center,-1,42.00122,-93.64109
403,Lindos Princess Beach Hotel All Inclusive,23,36.08004,28.019
405,Holiday Inn Express & Suites Shawnee,92,35.38488,-96.92081
408,Comfort Inn Guilford,88,41.28788,-72.65725
409,Park Plaza Suites Hotel,-1,36.48614,-4.95555
410,Scandic Stavanger Airport,39,58.88332,5.62785
412,Wyndham Merida,60,20.98699,-89.62615
413,Pool Port Douglas,-1,-16.51614,145.46324
414,Omni San Francisco Hotel,41,37.79293,-122.40271
415,Larkspur Landing Pleasanton - An All-Suite Hotel,-1,37.69907,-121.90554
418,Sol PelAcanos Ocas,-1,38.53646,-0.10907
419,Pietra e Mare Mykonos Hotel,-1,37.43208,25.40319
420,Sunstar Alpine Hotel Wengen,-1,46.60653,7.9208
421,Comfort Suites,79,31.72829,-93.15224
422,Le Stanley Hotel and Suites,-1,-22.28564,166.46827
423,Suites AristAteles 225,-1,19.43239,-99.19354
424,Hotel Mea,-1,38.47338,14.95073
425,Apartamentos Palmera Beach,-1,37.89221,-0.75321
427,Northern Sands Hotel,-1,58.62135,-3.34386
428,Inn of the Governors,-1,35.68529,-105.94031
430,Boston Park Plaza,-1,42.35071,-71.07015
431,Kouros Hotel & Suites,-1,37.45496,25.32867
432,Canad Inns Destination Centre Club Regent Casino Hotel,-1,49.89553,-97.04299
433,Aberdeen Douglas Hotel,-1,57.14596,-2.09629
435,Sunriver Resort - Destination Hotels & Resorts,-1,43.87388,-121.44537
436,Quality Inn,84,42.50063,-94.20925
437,Hotel Club Augusta,-1,38.99374,1.56714
438,Tulip Inn Eindhoven Airport,-1,51.45854,5.39279
439,Hesperia Peregrino,-1,42.87186,-8.55593
440,Viva Wyndham Dominicus Beach Resort - All Inclusive,60,18.34968,-68.8289
441,Los Zocos Club Resort,-1,29.00156,-13.48693
442,Alpine Lodge Fairbanks,-1,64.8238,-147.86614
444,Inturotel Cala Azul Park,-1,39.3773,3.23743
446,NH Collection San SebastiAn ArAnzazu,-1,43.31274,-2.00743
447,Baymont Inn & Suites Salida,52,38.52417,-106.01528
448,MeliA Recoletos Boutique Hotel,-1,41.64608,-4.72783
449,Atalos Hotel  Apartments & Suites,-1,36.38131,25.48348
450,Comfort Inn & Suites Near Burke Mountain,88,44.38846,-72.02425
451,Hyatt Regency Waikiki Beach Resort & Spa,1,21.27568,-157.82456
452,Lodge at Mountaineer Square,-1,38.90047,-106.96773
454,Ibis Charleroi Centre Gare,45,50.4062,4.43905
455,Protea Hotel Victoria Island,13,6.43052,3.43007
456,Radisson Blu Hotel Doha,65,25.27258,51.51296
457,Hotel Parco Smeraldo Terme,-1,40.70109,13.91338
458,Hotel Ascot,-1,40.62425,14.3681
459,Apartamentos Jutlandia,-1,39.5129,2.48473
460,Carthage Thalasso Resort,-1,36.92353,10.278
461,Ramada Geneva Lakefront,73,42.86366,-76.98185
462,Crowne Plaza Bahrain,71,26.24336,50.58954
465,Alpine Inn & Suites,-1,38.53785,-106.93474
466,130 Queen's Gate Apartments,-1,51.4945,-0.17876
467,Grand Jersey Hotel & Spa,-1,49.18738,-2.11615
468,The Rees Hotel and Luxury Apartments,-1,-45.0283,168.68769
470,The Norfolk Lodge Hotel,-1,49.19273,-2.10819
472,Hotel Le Lagon,-1,-22.30103,166.44498
473,L'Augeval,-1,49.35499,0.07119
474,Hotel Savoia,-1,40.62998,14.48646
477,Rixos Grand Ankara,-1,39.9103,32.85577
478,Hilton Fiji Beach Resort and Spa,3,-17.76866,177.37847
479,Leonardo Haifa,-1,32.79656,34.95712
481,The Kensington Court,-1,42.23949,-83.74128
482,Peppers Guest House,-1,-32.7718,151.28164
483,Imperial Hotel Tramontano,-1,40.62734,14.3722
484,Best Western Plus Bridgewater Hotel & Convention Centre,82,44.40164,-64.54129
485,The Academy Hotel Colorado Springs,-1,38.9491,-104.80424
486,Holiday Inn Express New Haven,92,41.06382,-85.00105
487,Luminous Hot Spring & Resort,-1,22.89939,121.10123
491,Hotel Grand Pacific,-1,48.4211,-123.37227
492,Sofitel Fiji Resort And Spa,26,-17.7708,177.37403
493,Mariani's Inn,-1,37.35227,-121.97118
494,Goldey Swiss Quality Hotel,-1,46.69001,7.85477
496,Arthur's Court Motor Lodge,-1,-43.51539,172.63808
497,The Blowfish Hotel,-1,6.42648,3.41485
498,Mercure Inverness Hotel,46,57.47834,-4.22632
499,Extended Stay America - Bakersfield - California Avenue,72,35.36876,-119.03963
500,Sandos Playacar Beach Experience Resort - All Inclusive,-1,20.60255,-87.09437
501,Homewood Suites by Hilton Olmsted Village,77,35.20538,-79.4822
502,The PZAZZ! Resort Hotel and Catfish Bend Inn & Spa,-1,40.82209,-91.14059
503,Reef Club Resort,-1,-16.49135,145.4645
506,Hotel Healdsburg,-1,38.61015,-122.87185
507,Saint Patrick's Hotel,-1,36.0304,14.21804
508,Hampton Inn & Suites Bay City,91,28.98669,-95.93361
510,Holiday Inn Greenville,92,35.57455,-77.38719
511,NH Collection Palacio de AvilAs,-1,43.55559,-5.92232
513,The Langham  Boston,12,42.35625,-71.05457
514,Hotel Hacienda Jurica,-1,20.67608,-100.45135
516,Queen Anne Inn,-1,41.68382,-69.96628
518,Outrigger Fiji Beach Resort,-1,-18.17764,177.55353
520,Beachfront Hotel,-1,44.29866,-84.73553
521,Suburban Extended Stay Hotel,-1,37.97763,-87.48288
522,Hotel Ferrari,-1,44.31332,9.32753
523,Best Western Grand Manor Inn,0,44.08262,-123.03996
524,Storm Meadows at Christie Base,-1,40.45931,-106.81804
525,Lloyd's Baia Hotel,-1,40.67158,14.73402
528,Cerri Hotel,-1,38.02773,12.87901
529,PhAnix Hotel - Aalborg,-1,57.04824,9.91579
532,Vivanta by Taj - Whitefield  Bangalore,-1,12.98745,77.73723
533,Fiesta Inn Queretaro,-1,20.5829,-100.40826
534,Mercure Astoria Reggio Emilia,46,44.70255,10.63207
535,THe Hotel VolcAn Lanzarote,-1,28.85844,-13.81083
536,Days Inn Sudbury,85,46.49309,-80.99949
538,Cumulus Salo Hotel,-1,60.38646,23.12816
539,Hotel Villas Resort,-1,39.20449,9.55994
540,Comfort Suites Amish Country,79,40.02564,-76.20827
542,Baymont Inn & Suites,52,43.7554,-87.94364
544,Grupotel Molins,-1,39.91996,3.05708
545,Alpha-Palmiers Hotel,-1,46.51831,6.62998
546,Holiday Inn Express Princeton Southeast,92,40.33999,-74.59827
547,Hotel Aura del Mar,-1,17.63978,-101.55165
548,Siroco's Rooms & Studios,-1,37.07734,25.14611
549,Hotel Excelsior Magenta,-1,45.46736,8.88018
550,Stoney Creek St. Joseph,-1,39.77208,-94.79669
551,Red Lion Hotel Port Angeles,42,48.11964,-123.43039
552,Albufeira Sol Hotel & Spa,-1,37.09406,-8.22237
553,Hilton Garden Inn West Lafayette Wabash Landing,87,40.42044,-86.90095
554,LaCrosse Stoney Creek,-1,43.87486,-91.18489
556,Red Lion Hotel and Casino Elko,42,40.84957,-115.74632
557,Sunset Bungalows,-1,-17.73985,168.34758
558,Sheraton Hotel Newfoundland,76,47.57081,-52.70079
560,Holyrood Aparthotel,-1,55.95106,-3.17855
561,Days Inn Galliano La,85,29.4203,-90.29684
562,Park Hyatt Mendoza,1,-32.8891,-68.84588
563,Holiday Inn Express Hotel and Suites Kinston,92,35.26168,-77.64824
564,Comfort Inn & Suites,88,41.86768,-71.89333
565,Poiano Resort Apartments,-1,45.58007,10.73175
566,Radisson Blu Hotel  Alesund,65,62.4756,6.15536
568,GuestHouse Inn Sutherlin,22,43.38436,-123.33615
569,Maldron Hotel & Leisure Club Cardiff Lane,-1,53.3455,-6.24061
570,Audleys Wood Hotel,-1,51.24572,-1.07919
571,Hotel Andorra,-1,28.05689,-16.72879
572,Chicago South Loop Hotel,-1,41.84556,-87.6272
573,Apartamentos Ferrer Tamarindos,-1,39.83726,3.11981
575,Country Inn & Suites By Carlson  Galesburg  IL,-1,40.97476,-90.38971
577,Colonial Inn in Harbor Springs,-1,45.42924,-84.97228
579,Aparthotel Parque Tropical,-1,37.20993,-1.81788
581,Precise Golf Resort El Rompido The Hotel,-1,37.22514,-7.13678
582,Courtyard by Marriott Richland - Columbia Point,90,46.26311,-119.25339
584,Fraser Suites Perth,-1,-31.96084,115.87493
585,Hotel Santa Lucia,-1,40.65027,14.62577
586,Flamingo Conference Resort & Spa,-1,38.44978,-122.68875
588,Radisson Blu Marina Palace Hotel  Turku,65,60.44692,22.26005
589,Hotel Britannia Excelsior,-1,45.99239,9.23823
590,Amfora Hvar Grand Beach Resort,-1,43.17317,16.43378
591,Prince George Hotel,23,44.64729,-63.57635
592,Palm Beach Hotel,-1,13.46031,-16.70749
593,Hotel ibis Lagos Ikeja,45,6.59597,3.35142
595,The Brehon,-1,52.04523,-9.50492
596,Faial Resort Hotel,-1,38.53052,-28.62819
597,Hotel Orazia,-1,41.89422,12.50313
598,Holiday Inn Express Hotel & Suites Bucyrus,92,40.82259,-82.97419
599,Holiday Inn Huntingdon - Racecourse,92,52.33243,-0.22768
600,Ramada Plaza Beirut Raouche,73,33.89172,35.47262
601,La Fonda on the Plaza,-1,35.68682,-105.9381
603,Mendeli Street Hotel,-1,32.07917,34.76884
605,The Golden Sands,-1,49.18558,-2.19706
607,Days Inn Gettysburg,85,39.83761,-77.21252
611,The Cornhusker  A Marriott Hotel,2,40.8109,-96.70257
614,Super 8 Galva,83,41.16505,-90.0436
615,Montebello Splendid Hotel,-1,43.77545,11.24122
616,Comfort Inn Sudbury,88,46.44848,-80.99486
618,Cavalieri Hotel,-1,39.62122,19.92374
619,Viva Menorca Aparthotel,-1,39.92708,3.82672
620,Days Inn Montrose,85,38.48672,-107.86614
621,Best Western Plus Charter House Hotel Downtown Winnipeg,82,49.88905,-97.14121
622,Coconut Bay Beach Resort & Spa All Inclusive,-1,13.74155,-60.93987
623,Benalmadena Palace,-1,36.58571,-4.53596
624,Hotel Bellevue Suite,-1,40.62754,14.59072
625,Best Western Royal Beach Hotel,0,50.77952,-1.07599
626,The Horton Grand Hotel,-1,32.71047,-117.16149
627,HAtel de l'Image,-1,43.78801,4.83253
628,Sofitel Munich Bayerpost,26,48.13927,11.55773
629,Timbers Motel,-1,42.18547,-122.69064
630,Country Motor Inn,-1,45.66706,-110.55254
631,BlueSky Breckenridge,-1,39.47647,-106.05237
632,Econo Lodge,70,42.1113,-72.0959
635,Quality Inn West Acres,84,46.85955,-96.83801
636,Hampton Inn Logan,91,41.76196,-111.83433
637,Country Inn & Suites by Carlson Rock Falls,-1,41.76222,-89.68938
638,Astoria Suite Hotel,-1,44.06933,12.57939
639,Elba Carlota Beach Resort,-1,28.38836,-13.86461
640,Sunshine Corfu Hotel & Spa All Inclusive,-1,39.72611,19.9043
641,Oaks Oasis,18,-26.80601,153.12319
643,Platzl Hotel,-1,48.1381,11.57884
645,Carnegie Hotel & Spa,-1,36.30621,-82.36837
646,Rosedon Hotel,-1,32.29169,-64.79179
648,Holiday Inn Express Hotel & Suites Sandpoint North,92,48.31228,-116.54619
649,Les Tresoms,-1,45.88955,6.13658
650,Hilton Istanbul Bomonti Hotel & Conference Center,3,41.05816,28.97922
651,Wingate By Wyndham Rome,60,43.20966,-75.41337
652,Holiday Inn Portsmouth,92,43.07394,-70.77759
654,Protea Hotel Capital,13,-25.75164,28.19342
655,HYATT house Pleasanton,1,37.68968,-121.9016
656,Mary Studios & Apartments,-1,36.37612,25.48201
657,Hilton Garden Inn West Monroe,87,32.50737,-92.18924
658,Ashmore Inn & Suites,-1,35.19362,-101.81126
661,Hilton Garden Inn Dayton South-Austin Landing,87,39.60175,-84.23204
662,Ramada Olds,73,51.79498,-114.13651
663,Hampton Inn Clinton  IA,91,41.81849,-90.25084
664,Comfort Inn Coldwater,88,41.94051,-84.978
666,Mystic Hotel by Charlie Palmer,-1,37.7899,-122.40705
667,Pollock Halls,-1,55.94057,-3.17273
668,Best Western Adena Inn,0,39.35911,-82.97756
669,Cotswold House,-1,-33.87839,18.49137
672,Le Terrazze Sul Lago Residence & Hotel,-1,45.49817,10.50827
673,Hampton Inn Haverhill,91,42.77117,-71.1171
677,Flat Creek Inn and Suites,-1,46.00475,-91.48239
678,Quality Inn Gaylord,84,45.02779,-84.68618
679,Trumbull Marriott Merritt Parkway,2,41.23497,-73.14837
681,Hotel Palazzo dal Borgo,-1,43.77375,11.24815
682,Lake Lawn Resort,-1,42.62777,-88.60137
683,Alvisse Parc Hotel,-1,49.64026,6.15281
684,Hotel & Spa Poco a Poco,-1,10.31544,-84.82295
685,Skene House HotelSuites - Holburn,-1,57.14301,-2.11274
686,ibis budget Luxembourg sud,45,49.53259,6.11132
689,Golden Tulip Serenada Hotel Hamra,-1,33.8964,35.48389
690,Mantra on the Esplanade,-1,-12.46347,130.83829
692,Radisson Hotel Red Deer,65,52.28894,-113.83962
693,Sheen Falls Lodge,-1,51.8733,-9.56449
694,Aparthotel Adagio Saint Etienne Centre,4,45.43408,4.38866
695,Best Western The Mayor,0,56.15114,10.20301
696,Tranquility Bay Beachfront Hotel and Resort,-1,24.7098,-81.09999
697,InterContinental Nanjing Greenland,50,32.06276,118.77887
699,THB Los Molinos - Adults Only,-1,38.90472,1.42836
700,Baymont Inn Zanesville,-1,39.94416,-82
701,Comfort Inn & Suites Sheridan,88,44.8064,-106.92698
702,Holiday Inn Express Prince Frederick,92,38.53535,-76.58334
703,Palazzo Mosco Inn,-1,40.05468,17.97778
704,Ramada Kearney,73,40.67777,-99.08473
705,Woodfield Inn and Suites,-1,44.68177,-90.16288
706,Durango Downtown Inn,-1,37.27288,-107.8837
707,HS Hotsson Hotel Leon,-1,21.11961,-101.6668
709,RIU Negril All Inclusive,-1,18.35585,-78.33623
710,Guy Harvey Outpost  a TradeWinds Beach Resort,-1,27.73306,-82.74537
711,Days Inn Mason City,85,43.14813,-93.23543
713,Village ParaAso Tropical,-1,-13.38431,-38.91198
714,Hotel St. Lauren,-1,33.34257,-118.32841
716,Marina Tel Aviv Hotel,-1,32.08552,34.77014
717,Westbury Mayfair Hotel,-1,51.5115,-0.14281
718,The Killeshin Hotel,-1,53.03973,-7.27237
719,Carnoustie Golf Hotel,-1,56.49798,-2.71667
721,Skansen Hotel,-1,58.97361,5.72991
726,Country Inn & Suites By Carlson  Birch Run  MI,-1,43.24907,-83.78277
727,Hotel Baltimore Paris Champs ElysAes MGallery Collection,-1,48.86641,2.2896
728,Wine Country Inn,-1,38.52513,-122.49418
729,Vino Bello Resort,-1,38.24644,-122.27316
731,NH Ciudad de Zaragoza,-1,41.65757,-0.8818
732,Holiday Inn Express - Edinburgh City Centre,92,55.95702,-3.18617
733,MotorCity Casino Hotel,-1,42.33978,-83.06718
736,Wyndham Canterbury at San Francisco,60,37.78868,-122.41261
737,Country Suites By Carlson  Bismarck  Nd,-1,46.84096,-100.77137
738,Royal West Indies Resort,-1,21.79906,-72.16894
739,Hotel Hostalillo,-1,41.91735,3.20627
740,Baymont Inn & Suites Pearsall,52,28.89265,-99.1062
741,Suite Hotel Atlantis Fuerteventura Resort,-1,28.72972,-13.85891
742,Clarion Suites Cannes Croisette,58,43.55016,7.03045
744,Red Lion Inn & Suites- Kennewick,42,46.21603,-119.21862
745,Hyatt Regency Hill Country Resort & Spa,1,29.46148,-98.68186
746,Value Place Salt Lake City  UT (West Valley),-1,40.69665,-111.93766
747,Holiday Inn Express Hotel & Suites Lubbock South,92,33.53514,-101.84509
749,DoubleTree by Hilton Hotel Oak Ridge - Knoxville,80,36.00756,-84.26144
752,Econo Lodge Easton,70,38.77403,-76.06002
754,Courtyard by Marriott Chico,90,39.71699,-121.80472
756,Luna Olympus,-1,37.07689,-8.1173
757,Hotel Club Helios,-1,36.85142,15.11054
758,Red Lion Hotel Coos Bay,42,43.37743,-124.21582
759,Embassy Suites San Luis Obispo,74,35.25989,-120.67498
761,Americas Best Value Inn - Mariposa Lodge,62,37.48623,-119.96664
762,Hotel ibis El Jadida,45,33.24532,-8.49065
763,Moab Under Canvas,-1,38.67605,-109.68886
764,Hampton Inn Loveland,91,40.40813,-104.99887
765,Stamford Plaza Melbourne,-1,-37.81338,144.96991
766,Domina Home Royal,-1,40.62956,14.48266
767,Hotel Koldingfjord,-1,55.49832,9.55479
768,Crystal Bay on the Broadwater,-1,-27.9538,153.40937
769,Camino Real Polanco Mexico,-1,19.4277,-99.17957
770,The Marcus Whitman Hotel and Conference Center,-1,46.06731,-118.34078
771,Ramada Plaza Green Bay,73,44.47626,-88.07691
772,Hampton Inn College Station,91,30.62917,-96.33683
773,Comfort Suites Lake Geneva,79,42.59156,-88.4195
774,Benjamin Herzliya Business Hotel,-1,32.16632,34.81259
775,Red Roof Inn Binghamton - Johnson City,67,42.128,-75.97048
778,Wyndham Peachtree Conference Center,60,33.40448,-84.57333
779,Poderi Arcangelo,-1,43.5245,11.03171
780,The Cabana Inn Key West - Adult Only,-1,24.55473,-81.80302
785,Mercure Livingston Hotel,46,55.88616,-3.50533
786,Erytha Hotel & Resort,-1,38.32451,26.15536
787,Quality Inn & Suites,84,40.6305,-77.58155
789,Comfort Suites,79,44.58503,-123.25695
790,Sleeping Giant Rainforest Lodge,-1,17.10854,-88.66552
791,Eurotel El Bosque,-1,-33.41614,-70.60066
792,Kent State University Hotel and Conference Center,-1,41.15234,-81.3564
793,Hampton Inn Tulsa-Sand Springs,91,36.1457,-96.08086
794,Scandic Parken,39,62.47363,6.15825
796,Executive Royal Hotel West Edmonton,-1,53.53843,-113.62843
797,InterContinental Wellington,50,-41.28501,174.77646
798,Doubletree by Hilton Cedar Rapids Convention Complex,80,41.97984,-91.66688
800,Hotel Kia Ora Resort & Spa,-1,-14.96336,-147.63679
801,Oak Motel Palo Alto,-1,37.40669,-122.12019
803,Chateau Royal Beach Resort and Spa,-1,-22.30924,166.45017
804,Novotel Marseille Vieux Port,51,43.29216,5.36024
805,Country Inn & Suites By Carlson  Peoria North  IL,-1,40.7749,-89.67578
806,Country Inn & Suites By Carlson Gettysburg,-1,39.79607,-77.19936
808,Super 8 Bloomington,83,39.18741,-86.54561
809,Days Inn and Suites Fargo 19th Ave/Airport Dome,85,46.90561,-96.801
810,Villa del Mar Hotel,-1,38.53715,-0.13838
811,Apartaments Els Llorers,-1,41.70776,2.86362
812,Puro Hotel Wroclaw,-1,51.10821,17.02455
813,Holiday Inn Hotel & Suites Waco Northwest,92,31.6062,-97.10225
814,Red Lion Hotel Canyon Springs,42,42.58614,-114.46024
815,Galerie-Hotel Bad Reichenhall,-1,47.72839,12.88191
817,Nordic Lodge Of Steamboat,-1,40.48789,-106.83756
819,Teller House,-1,37.81222,-107.66386
820,Harmony - an Atlas Boutique Hotel,-1,31.78093,35.21978
821,Four Points by Sheraton Halifax,76,44.6449,-63.57147
822,Ashmore Inn and Suites,-1,33.52925,-101.90209
823,Hampton Inn Dublin,91,37.07256,-80.69685
824,The Chateaux Deer Valley,-1,40.62269,-111.48865
825,Grand Beach Resort Hotel,-1,44.74634,-85.54529
826,Relais Corte Palmieri,-1,40.05587,17.97623
827,Delta St John's Hotel & Conference Centre,31,47.55922,-52.71349
828,Aava Whistler Hotel,-1,50.11393,-122.95812
829,Fairfield Inn and Suites by Marriott Yakima,89,46.6092,-120.49169
831,Hampton Inn Waynesburg,91,39.89528,-80.1835
832,Fedrania Garden,-1,34.9907,33.98139
833,Hilton Burlington,3,44.47773,-73.2188
835,Spearfish Canyon Lodge,-1,44.35255,-103.9316
837,Deliades Hotel,-1,37.42287,25.32598
839,Grand Hotel,-1,59.91366,10.73939
840,Hampton InnA Buckhannon,91,38.96303,-80.24504
843,Clarion Suites Gateway,58,-37.81935,144.95982
844,The Campbell House,-1,38.03358,-84.52382
845,The Mission Inn Hotel & Spa,-1,33.98265,-117.37323
847,The Charles Hotel,-1,42.37245,-71.12237
848,The Knight Residence by Mansley Serviced Apartments,-1,55.94549,-3.20149
849,Cumulus Lahti,-1,60.98349,25.66411
851,Soprano St Magnus Court Hotel,-1,57.1451,-2.09665
852,O'Haire Motor Inn,-1,47.5045,-111.29553
853,Little House in Rehavia,-1,31.77486,35.21396
854,Hampton Inn Auburn,91,32.5565,-85.50747
855,Residenza Vaticana,-1,41.90915,12.46632
856,High Peaks Resort,-1,44.29174,-73.98595
857,Sheraton Princess Kaiulani,76,21.27697,-157.82551
859,Waikiki Marina Resort at the Ilikai,-1,21.28484,-157.83829
860,Clarion Hotel,58,40.78458,-73.10877
862,Fredericton Inn,-1,45.9354,-66.66092
864,Still Waters Resort,-1,36.63751,-93.34474
865,Executive Hotel Le Soleil,-1,49.28519,-123.11812
866,SeaCrest OceanFront Hotel,-1,35.1489,-120.64975
867,La Quinta Inn & Suites Moreno Valley,86,33.93938,-117.25983
868,Comfort Inn,88,40.54167,-81.91609
869,Cara Suites Hotel and Conference Centre,-1,10.34298,-61.45792
870,Cap Juluca,-1,18.16498,-63.1417
871,Edmonton Marriott at River Cree Resort,2,53.51043,-113.69586
872,Prado do Golf,-1,37.10272,-8.11864
873,Central Kiev Apartments,-1,50.44337,30.52067
874,Ramada Penticton Hotel and Suites,73,49.495,-119.61331
875,Hampton Inn & Suites Windsor/Sonoma Wine Country,91,38.54921,-122.80741
877,Hotel Stratford,-1,37.78704,-122.40818
878,Fauna Hotel,-1,-33.04382,-71.62717
879,La Quinta Inn & Suites Granbury,86,32.43208,-97.76374
880,Shilo Inn Suites - Moses Lake,-1,47.10165,-119.24446
881,Bella Santorini,-1,36.34971,25.46357
882,Sonesta Hotel Barranquilla,-1,11.01339,-74.83647
885,Novotel Liverpool Centre,51,53.4032,-2.98446
886,Holiday Inn Dublin-Pleasanton,92,37.70059,-121.93261
887,Hilton Garden Inn Cedar Falls,87,42.4708,-92.44773
889,Hotel Zero 1,-1,45.50893,-73.56157
890,Explorers Hotel at Disneyland Paris,-1,48.87703,2.80613
891,A Maiden Rest,-1,50.61548,-2.45234
892,Chancellor Hotel on Union Square,-1,37.78872,-122.40854
893,Hoposa Hotel & Apartments Villaconcha,-1,39.9004,3.07622
894,Waverley Hotel,-1,57.58361,-3.87042
895,Best Western Plus Weston Inn,82,41.73616,-111.83482
896,Mount Zion Hotel,-1,31.76853,35.22618
897,Aqua Palms Waikiki,-1,21.2848,-157.83641
898,Baymont Inn & Suites Mt. Pleasant,52,43.61152,-84.73054
899,Howard Johnson Inn and Conference Center Salem,54,37.29524,-80.09536
900,Shilo Inn Suites Hotel - Idaho Falls,-1,43.50084,-112.04852
902,Le Square Phillips Hotel And Suites,-1,45.50344,-73.56731
903,Harborview Inn & RV Park,-1,45.55799,-123.91503
904,Hotel Almenara,-1,36.27583,-5.35196
905,Argyll Hotel,-1,56.23188,-5.07412
906,Protur Sa Coma Playa Hotel & Spa,-1,39.58119,3.3774
909,La Quinta Inn Joplin,86,37.05309,-94.47843
910,Hotel Britannia,-1,55.46723,8.45221
911,Grand Hotel La Pace,-1,40.6252,14.40079
914,Grand Hotel Miramare,-1,44.32795,9.21517
915,Brown TLV Urban Hotel,-1,32.06531,34.76992
916,azuLine Hotel Coral Beach,-1,39.00433,1.57959
917,Hampton Inn Cleveland Westlake,91,41.46411,-81.94877
918,Quaaout Lodge and Spa  Talking Rock Golf,-1,50.87638,-119.61432
919,GrandBee Suites,-1,6.58602,3.35357
920,ibis Amsterdam Centre,45,52.37947,4.89699
921,Red Lion Hotel Columbia Center Kennewick,42,46.22199,-119.22402
923,Hotel Vittoria,-1,40.62753,14.4813
924,Holiday Inn Muskegon-Harbor,92,43.23512,-86.25301
926,Hotel Saint Nicolas,-1,46.15816,-1.14895
927,Best Western Plus Chocolate Lake Hotel,82,44.64031,-63.62464
928,Motel 6 Sunnyvale South,75,37.39574,-122.02829
930,Comfort Inn South,88,42.31415,-122.85815
932,Blue Seas Resort,-1,-17.93067,122.21706
933,Hotel la Citadelle Metz - M Gallery,-1,49.11384,6.17018
936,Holiday Inn Express Hotel & Suites Camden,92,33.57601,-92.85537
937,Stoney Creek Quincy,-1,39.93514,-91.35445
938,Pan Pacific Perth,10,-31.95864,115.86823
939,Hampton Inn & Suites Hope,91,33.6839,-93.61694
940,Wingate by Wyndham Pueblo,60,38.32148,-104.61838
941,Best Western Hotel Plaza,0,36.45073,28.22267
943,Grand Plaza Serviced Apartments,-1,51.51335,-0.19086
944,Masson House,-1,55.93985,-3.17131
945,The Grand Summit Hotel,-1,40.68681,-111.55208
946,Holiday Inn Burlington,92,44.46921,-73.18118
947,The Westin Panama,66,9.01006,-79.47519
949,Marina Resort,-1,34.24377,-116.91244
950,SpringHill Suites by Marriott Logan,78,41.72088,-111.83332
951,Hotel Acadia,-1,46.81118,-71.21004
952,Ibersol Hotel Antemare SPA,-1,41.23144,1.79652
953,Super 8 Lee/Berkshires/Outlet Area,83,42.30037,-73.24252
955,Holiday Inn Express And Suites - Vernon,92,50.28208,-119.27575
956,The Cove Of Lake Geneva,-1,42.58926,-88.43341
958,Gettysburg Hotel,-1,39.83107,-77.23097
959,Islamabad Marriott Hotel,2,33.73412,73.08861
960,Extended Stay America - Allentown - Bethlehem,72,40.65388,-75.41466
961,Courtyard Pittsburgh North/Cranberry Woods,-1,40.68243,-80.09058
962,Super 8 Lewisburg Wv,83,37.81448,-80.43008
966,Paradise Resort Club,-1,51.09044,-115.34889
967,Best Western Hotel Bellevue au Lac,0,45.99398,8.94611
970,Harbour Hotel,-1,53.27089,-9.04754
971,Quality Resort Chateau Canmore,-1,51.1002,-115.36172
972,Village Urban Resort Bournemouth,-1,50.74666,-1.8241
974,ibis Caen Centre Paul Doumer,45,49.182,-0.36586
975,Le Grand Hotel,-1,43.55003,7.02431
976,Hawthorn Suites by Wyndham Lubbock,60,33.5748,-101.90464
977,Baymont Inn And Suites Tullahoma  TN,-1,35.39188,-86.23971
979,Bridge Vista Beach - Hotel & Convention Center,-1,45.76759,-84.72488
981,Hilton Coylumbridge,3,57.1735,-3.8039
982,Extended Stay America Jacksonville - Camp Lejeune,72,34.78468,-77.3919
984,Ramada Plaza Izmit,73,40.77123,29.96986
985,Best Western Plus Inn At The Vines,82,38.281,-122.27413
986,Hotel Galvez & Spa  A Wyndham Grand Hotel,60,29.29209,-94.78582
987,Miners Inn,-1,37.49299,-119.97334
988,Royal Decameron Club Caribbean All Inclusive,-1,18.4687,-77.30452
989,Hampton Inn Pendleton,91,45.66129,-118.78555
990,Comfort Inn,88,47.63732,-65.67717
991,Hampton Inn & Suites Schererville,91,41.48835,-87.47092
992,Royal Windsor Hotel Grand'Place,-1,50.84509,4.35447
993,Chelsea Motor Inn,-1,37.7998,-122.43603
994,Welk Resort Branson Hotel,-1,36.60515,-93.29129
995,Banbridge Inn,-1,46.26545,-63.15598
996,Residence Inn by Marriott Chico,81,39.71711,-121.80473
998,Castle Hilo Hawaiian Hotel,-1,19.72805,-155.06596
999,Hotel Excelsior Splendide,-1,45.98624,9.26061
1000,Best Western City Sands,0,-34.42974,150.89911
1001,Hotel Zico,-1,37.3789,-122.06932
1004,Baymont Inn And Suites Wahpeton,-1,46.28639,-96.62486
1005,Ambassador Hotel - Milwaukee,-1,43.03889,-87.94181
1006,Hyatt Regency Perth,1,-31.96046,115.87372
1008,Sadot  Airport Hotel - an Atlas Boutique Hotel,-1,31.96759,34.84261
1009,Hampton Inn & Suites East Lansing Okemos,91,42.68446,-84.43053
1010,La Quinta Inn Rock Springs,86,41.58042,-109.25943
1013,Creekside Inn,-1,37.4192,-122.13484
1015,Le St-Martin HAtel Particulier MontrAal,-1,45.50169,-73.57391
1018,Hyatt Place Sacramento Roseville,1,38.77667,-121.27331
1020,Clube do Lago,-1,38.70855,-9.40573
1022,Hilton Garden Inn Worcester,87,42.26748,-71.79836
1024,Qubus Hotel Gdansk,-1,54.34484,18.65549
1025,Dunraven Arms Hotel,-1,52.56506,-8.7868
1026,Hotel Conti,-1,54.67538,25.28227
1027,Hampton Inn & Suites Lanett-West Point,91,32.82646,-85.21936
1028,Maritim Antonine Hotel & Spa,-1,35.95877,14.36202
1029,Holiday Inn Express San Clemente,92,33.43754,-117.62173
1030,Austin Hotel & Convention Center,-1,34.50888,-93.05279
1031,Eldorado Hotel & Spa,-1,35.68806,-105.94203
1033,Radisson Blu Scandinavia Hotel  Oslo,65,59.91879,10.7338
1034,C'mon Inn Fargo,-1,46.84922,-96.8582
1036,Hyatt Fisherman's Wharf,1,37.80628,-122.41641
1037,Ramada Urbana/Champaign,73,40.1324,-88.21995
1041,Hyatt Regency Guam,1,13.51069,144.8056
1043,Comfort Inn,88,48.94423,-57.91687
1044,Apex City Of London Hotel,-1,51.51053,-0.07927
1045,Campus Tower Suite Hotel,-1,53.52279,-113.51993
1046,Hyatt Regency La Jolla,1,32.87128,-117.22459
1047,Sheraton Iowa City Hotel,76,41.65827,-91.53305
1051,Marinos Hotel,-1,37.08879,25.15756
1052,Shoreline Inn & Conference Center an Ascend Collection Hotel,44,43.23947,-86.25508
1053,Quality Inn & Suites Butte,84,45.9859,-112.5072
1055,Wellesley Resort,-1,-18.25223,177.83555
1058,The Lighthouse Inn,-1,37.93502,-75.37406
1059,Borgo Hotel Le Terre del Verde,-1,43.21979,12.69807
1060,Comfort Inn And Suites Wilton,88,44.61995,-70.16652
1061,Hilton Garden Inn College Station,87,30.64622,-96.30151
1062,Fairmont Nile City  Cairo,35,30.07188,31.22734
1063,Best Western Grande Prairie Hotel & Suites,0,55.18521,-118.81785
1067,Ramada Gaslamp Convention Center-The Historic St James Hotel,73,32.71433,-117.15926
1068,InterContinental Medellin,50,6.2146,-75.55856
1069,Marina Hotel Corinthia Beach Resort,-1,35.92748,14.48906
1071,Piccolo Hotel Casa Mia,-1,37.06604,15.28649
1072,Hotel Monika,-1,43.5167,16.25021
1074,Colony Club by Elegant Hotels,-1,13.19437,-59.63879
1075,Hampton Inn & Suites Liberal,91,37.03236,-100.9163
1076,Holiday Inn Express Des Moines,92,41.59905,-93.64982
1077,The City Suites,-1,55.98622,-3.18916
1078,The Oxford Hotel,-1,39.75235,-104.99914
1079,Kita Hotel,-1,43.0426,141.35651
1080,Baymont Inn & Suites Greenville,52,34.85309,-82.33604
1081,Comfort Suites Columbia - University Area,79,38.96661,-92.35282
1082,Hotel Zalle Don Fernando,-1,43.38298,-5.74481
1083,SENTIDO Ixian Grand,-1,36.41933,28.17184
1087,Microtel Inn & Suites by Wyndham Sainte Genevieve,63,37.9674,-90.05741
1088,Comfort Suites Epernay-Champagne,79,49.02729,3.9535
1089,Executive Suites Hotel & Conference Centre Burnaby,-1,49.26745,-123.01052
1090,Guesthouse Inn and Suites Grayson,22,38.34734,-82.9363
1091,Vila Gale Cascais,-1,38.69135,-9.42365
1092,Hotel 140,-1,42.34866,-71.07427
1093,The Reef Atlantis  Autograph Collection,-1,25.08495,-77.32857
1095,Courtyard by Marriott South Bend-Mishawaka,90,41.70367,-86.18254
1096,Hyatt Regency Trinidad,1,10.65088,-61.51513
1097,Catalonia Royal Bavaro - Adults Only - All Inclusive,-1,18.63905,-68.34666
1098,Wingate By Wyndham Peoria,60,40.78177,-89.66848
1100,Hidden Valley Inn & Reserve,-1,17.04922,-88.90028
1101,Radisson Bloomington by Mall of America,65,44.85999,-93.25043
1102,Marriott Copenhagen,2,55.66888,12.57346
1104,The Juniper Hotel,-1,51.18889,-115.58388
1105,Hotel Emisia Sapporo,-1,43.03972,141.4739
1107,Hyatt Regency Birmingham-The Wynfrey Hotel,1,33.38008,-86.80687
1109,The Tremont House  A Wyndham Grand Hotel,60,29.30624,-94.79415
1110,Fairfield Inn & Suites Jonesboro,89,35.80736,-90.66125
1112,Holiday Inn Express Tacoma South Lakewood,92,47.15012,-122.50293
1113,Strand Hotel Terme Delfini,-1,40.72614,13.95888
1115,Perdido Beach Resort,-1,30.27546,-87.56156
1118,Cosy's Residence Cadet,-1,48.87475,2.34284
1119,Grande Albergo Alfeo,-1,37.06543,15.28708
1120,Four Seasons Hotel Vancouver,36,49.2834,-123.11843
1121,Country Inn & Suites By Carlson  Roanoke  VA,-1,37.35564,-79.95555
1122,The Westin Edina Galleria,66,44.87781,-93.32314
1123,Radisson Blu Plaza Hotel  Oslo,65,59.91205,10.75476
1124,American Inn Of Bethesda,-1,38.99145,-77.09591
1126,Hotel L'Orologio,-1,43.77354,11.24999
1127,Sedona Rouge Hotel And Spa,-1,34.86341,-111.79989
1129,1863 Inn of Gettysburg,-1,39.82368,-77.23103
1130,Microtel Inn & Suites by Wyndham Starkville,63,33.46982,-88.7705
1131,Craigs Inn Buffalo,-1,31.45066,-96.07805
1132,Big Horn Resort  an Ascend Hotel Collection Member,44,45.73691,-108.60285
1135,NoMo SoHo,-1,40.71992,-74.0003
1137,Inn At The Forks,-1,49.88774,-97.12949
1138,Fairfield Inn by Marriott Erie,89,42.07038,-80.10363
1139,Ocean Drive Beach & Golf Resort,-1,33.81905,-78.67163
1140,Cambridge Suites Hotel,-1,44.64517,-63.576
1141,Extended Stay America - Salt Lake City - Sugar House,72,40.72539,-111.85609
1142,Central Plaza Hotel,-1,47.37716,8.5439
1143,Holiday Inn Roanoke-Tanglewood-Rt 419&i581,92,37.22488,-79.98484
1144,Hyatt Regency San Francisco,1,37.79372,-122.39644
1146,Hotel Laguna,-1,-26.38623,153.08747
1148,Boarders Inn & Suites,-1,44.75768,-88.61418
1149,Hotel Solineu,-1,42.33708,1.93564
1150,Futura Motel,-1,45.57919,9.17305
1151,Aegean Plaza Hotel,-1,36.37984,25.48489
1152,Row NYC,-1,40.75905,-73.98844
1153,Holiday Inn Appleton,92,44.26019,-88.46905
1157,Inns of Banff,-1,51.18531,-115.55609
1158,Executive Plaza Hotel & Conference Centre Coquitlam,-1,49.24608,-122.8926
1159,Shilo Inn Suites Hotel - Richland,-1,46.2696,-119.26825
1160,Cruccuris Resort,-1,39.1452,9.48543
1161,Hilton Sharks Bay Resort,3,27.96687,34.40212
1163,Three Cities Royal Palm Hotel,-1,-29.72452,31.06805
1164,Hilton Garden Inn Ann Arbor,87,42.23862,-83.74952
1165,Dom Pedro Marina Hotel,-1,37.07471,-8.11581
1166,Holiday Inn Express Wilmington,92,39.45214,-83.79771
1169,Algila' Ortigia Charme Hotel,-1,37.06272,15.29617
1170,Comfort Inn Cobourg,88,43.98237,-78.17324
1171,Shilo Inn - Grants Pass,-1,42.4601,-123.32264
1172,Trailhead Lodge by Wyndham Vacation Rentals,60,40.45676,-106.8128
1173,Baymont Inn and Suites Camarillo CA,-1,34.22252,-119.10533
1174,Hampton Inn Topeka,91,39.04133,-95.75721
1175,Hotel President,-1,40.35404,18.18338
1176,The Beausite Hotel,-1,49.18643,-2.04019
1179,Courtyard by Marriott Topeka,90,39.03008,-95.76224
1180,Circa On The Square Hotel,-1,-33.91788,18.42514
1181,The Royal Anne Hotel,-1,49.88634,-119.49576
1182,Econo Lodge,70,44.05327,-123.11079
1183,Country Inn & Suites By Carlson Wausau,-1,44.91125,-89.60141
1185,Northwoods Resort and Conference Center,-1,34.24047,-116.91504
1186,Lancaster Arts Hotel,-1,40.04707,-76.31217
1187,Staycity Serviced Apartments Christchurch,-1,53.34316,-6.27377
1188,Amora Hotel Jamison Sydney,-1,-33.86434,151.20663
1189,Cities Of Gold Casino,-1,35.88944,-106.02084
1190,Expressway Inn,-1,46.7958,-100.78794
1191,Oak Tree Inn Elko,-1,40.83885,-115.78778
1192,Hampton Inn Lima,91,40.73057,-84.07228
1193,Hotel Nautilus,-1,43.90725,12.92674
1194,Courthouse Hotel,-1,51.51424,-0.13942
1195,Orange Tree Golf Resort,-1,33.58773,-111.96055
1196,Days Inn & Suites Bridgeport/Clarksburg,85,39.28164,-80.27851
1198,Extended Stay America San Ramon - Bishop Ranch - West,72,37.76164,-121.96795
1199,Carlton Hotel,-1,35.91462,14.49665
1200,Hotel Shattuck Plaza,-1,37.8693,-122.26844
1203,Comfort Inn & Suites,88,41.99152,-76.54774
1204,Phoenix Inn Suites - Albany,-1,44.62972,-123.06012
1205,TOP Hotel Consul,-1,50.73744,7.09971
1207,Hotel Park,-1,43.50316,16.44754
1208,Hotel Villa Maria Au Lac,-1,45.62911,10.58665
1209,Red Roof Inn Ardmore,67,34.20276,-97.11197
1210,DoubleTree by Hilton Downtown Wilmington - Legal District,80,39.74284,-75.54842
1211,La Quinta Inn & Suites Butte,86,45.98589,-112.50418
1212,Four Points by Sheraton Edmonton International Airport,76,53.30988,-113.53492
1213,Comfort Suites Lufkin,79,31.27775,-94.73548
1214,DoubleTree by Hilton Hotel Bend,80,44.05627,-121.31103
1215,Hampton Inn Eugene,91,44.04801,-123.15071
1216,Trip Hotel Ithaca,-1,42.47826,-76.4805
1217,Shore Stay Suites,-1,37.21566,-75.96903
1218,Old Town Chambers,-1,55.94995,-3.18919
1219,Days Inn and Suites Bozeman,85,45.69296,-111.04632
1220,Hotel De Anza,-1,37.33419,-121.89487
1221,North Bay Inn Santa Rosa,-1,38.45876,-122.71722
1222,Omni Jacksonville Hotel,41,30.32568,-81.66246
1224,Novotel Bern Expo,51,46.95852,7.4637
1225,Country Inn & Suites By Carlson Beckley,-1,37.79684,-81.22194
1227,Hotel Argento,-1,35.92062,14.48953
1228,Comfort Inn South Jacksonville,88,39.69238,-90.23095
1232,Hotel Renovo,-1,41.61508,-93.7721
1234,Southwest Inn at Sedona,-1,34.86079,-111.81692
1235,Courtyard by Marriott Pueblo Downtown,90,38.26788,-104.60718
1236,Le Grand Hotel Cabourg - MGallery Collection,-1,49.29364,-0.11561
1237,Alba Seleqtta,-1,41.70146,2.85203
1238,Holiday Inn Jackson Southeast - Pearl,92,32.27565,-90.14619
1239,Urban Hotel Grantham,-1,52.89993,-0.66218
1240,ResortQuest at Aspens on Blackcomb,-1,50.11656,-122.9437
1241,Hotel Teatro,-1,41.14675,-8.60924
1242,Cedar Court Huddersfield/Halifax,-1,53.6707,-1.82802
1243,Pomme d'Or Hotel,-1,49.18287,-2.10881
1247,Wingate by Wyndham - Harrisburg- Hershey,60,40.22651,-76.79721
1248,Red Lion Templin's Hotel on the River,42,47.70601,-116.94347
1249,Hampton Inn Ashtabula,91,41.7841,-80.8557
1250,Extended Stay America - Columbia - Northwest Harbison,72,34.09128,-81.16052
1251,Heidel House Resort & Spa,-1,43.83667,-88.94997
1252,The Port Inn  an Ascend Hotel Collection Member,44,43.06977,-70.7791
1253,Quality Inn Sacramento Convention Center,84,38.58047,-121.48562
1254,La Quinta Inn & Suites Paso Robles,86,35.64556,-120.67226
1256,Simmons Suites,-1,36.38416,-94.178
1258,Holiday Inn Leon,92,21.11832,-101.6631
1259,Days Inn Edmundston,85,47.35144,-68.21326
1260,Palazzo La Scala,-1,45.43612,12.3358
1261,Comfort Suites Sumter,79,33.95953,-80.39668
1262,Radisson Blu Atlantic Hotel  Stavanger,65,58.96836,5.73099
1263,Williamstown Motel,-1,42.70294,-73.18642
1264,The Century House  an Ascend Hotel Collection Member,44,42.7707,-73.75353
1265,Deer Lodge,-1,51.41671,-116.21037
1266,Barchetta Excelsior,-1,45.81278,9.08134
1268,Days Inn Edmonton Airport,85,53.27134,-113.5504
1271,Millennium Bostonian Hotel Boston,24,42.36079,-71.05584
1272,Motel 6 Peterborough,75,44.28936,-78.30103
1273,Econo Lodge,70,39.32645,-77.74461
1275,Hotel Gedik Pasa Konagi,-1,41.00727,28.9671
1276,Best Western Hotel Duca D'Aosta,0,42.46471,14.21302
1277,Travelers Rest Motel,-1,40.03891,-76.102
1278,Citotel Carnac Lodge & Hotel,-1,47.59117,-3.09996
1279,GuestHouse Inn & Suites Seaside,22,45.97698,-123.92789
1280,Settle Inn La Crosse,-1,43.85321,-91.24682
1281,Motel 6 San Simeon - Hearst Castle Area,75,35.61129,-121.14166
1282,Hotel De La Paix,-1,45.99225,8.94375
1284,Comfort Inn & Suites,88,53.68258,-113.24034
1285,Hadley's Orient Hotel,-1,-42.88377,147.32795
1286,Georgian Manor Resort,-1,44.51705,-80.26329
1287,Best Western Plus Heritage Inn Rancho Cucamonga/Ontario,82,34.1051,-117.56681
1288,Residence Inn by Marriott New Bedford Dartmouth,81,41.65325,-70.98637
1289,La Quinta Inn & Suites Twin Falls,86,42.59204,-114.46829
1292,Nantucket Inn,-1,41.2583,-70.06665
1293,Dolce Hayes Mansion,-1,37.26291,-121.8194
1294,Edgewater Inn Shady Cove,-1,42.61486,-122.81286
1295,Comfort Suites,79,40.52229,-105.05391
1296,Super 8 Drumheller,83,51.45754,-112.70281
1298,PremiAre Classe Bayeux,-1,49.27074,-0.70705
1299,Heron House - Adult Only,-1,24.55633,-81.80124
1300,Novotel Wellington,51,-41.28383,174.77448
1301,Comfort Inn Pickering,88,43.81357,-79.12281
1303,Comfort Inn Miami Valley Centre Mall,88,40.15094,-84.22402
1304,La Quinta Inn & Suites Conference Center Prescott,86,34.55142,-112.38322
1305,Inn on the Square,-1,41.55594,-70.62154
1307,Hotel ILUNION Calas De Conil,-1,36.30775,-6.14875
1308,Baymont Inn & Suites St. Joseph / Stevensville,52,42.03087,-86.51675
1309,The Wyvern Hotel - Downtown Punta Gorda,-1,26.93728,-82.05079
1311,Diana Plaza Hotel,-1,-27.4867,153.02904
1313,Wyndham Mauna Loa Village,60,19.55843,-155.96148
1314,Red Roof Inn Cleveland - Westlake,67,41.4705,-81.94969
1315,CLC Benal Beach,-1,36.59109,-4.52876
1316,Mercure Hotel Perth,46,-31.95614,115.86334
1317,Prado Villas,-1,37.09491,-8.11404
1319,Novotel Rockford Darling Harbour,51,-33.87713,151.20293
1321,La Quinta Inn & Suites Starkville,86,33.48121,-88.79478
1323,Econo Lodge Forsyth,70,33.04425,-83.93651
1324,Hilton San Diego Bayfront,3,32.70442,-117.15902
1327,Microtel Inn & Suites by Wyndham Tuscaloosa/Near University,63,33.19721,-87.51669
1328,Park Central Hotel San Francisco,-1,37.78681,-122.40261
1329,Comfort Inn Paradise,88,39.74637,-121.6077
1331,Best Western Plus Chateau Inn Sylvan Lake,82,52.3099,-114.09944
1332,Homewood Beaumont  TX,-1,30.04206,-94.1528
1335,Catalonia Privileged Maroma - All Inclusive,-1,20.73926,-86.97087
1337,The Ritz-Carlton  Herzliya,38,32.16367,34.79771
1338,ibis budget Charleroi AAroport,45,50.47449,4.48133
1339,Comfort Inn Gloucester,88,37.39428,-76.52558
1340,Argenta Suites Belgrano,-1,-34.5648,-58.45578
1341,HAtel du Nord,-1,46.81031,-71.24498
1342,Hotel Royal Chiaohsi,-1,24.82807,121.75681
1344,Syracuse Inn & Suites,-1,40.66933,-96.17914
1345,Stayokay Hostel Haarlem,-1,52.4142,4.64003
1347,Dream Castle Hotel at Disneyland Paris,-1,48.87455,2.80613
1348,Hotel Savoy,-1,57.78149,14.16021
1349,Comfort Suites,79,30.20904,-90.95048
1350,Comfort Inn And Suites Oxford,88,36.29696,-78.58081
1351,Motel 6 Canton  GA,75,34.25898,-84.46254
1352,Sawridge Inn - Edmonton South,-1,53.47876,-113.49152
1353,Comfort Suites South Haven,79,42.40506,-86.24269
1354,City Center Apartments,-1,32.81077,34.99905
1356,Americas Best Value Inn,62,38.76906,-93.57428
1357,NH Collection Milano President,-1,45.46319,9.19765
1358,Comfort Inn On the Ocean,88,35.9998,-75.64873
1360,Mangana Konak,-1,41.00262,28.97778
1361,Americas Best Value Inn Sunnyvale,62,37.39708,-122.01799
1362,Ramada Toledo Hotel and Conference Center,73,41.68443,-83.62266
1363,Country Inn & Suites By Carlson  Covington  LA,-1,30.43793,-90.0841
1365,Holiday Inn Express Portsmouth - Gunwharf Quays,92,50.79604,-1.10369
1367,Hotel Marina DelfAn Verde,-1,39.83894,3.11857
1369,Hotel Weber Ambassador,-1,40.54575,14.23467
1370,Comfort Inn & Suites,88,39.99511,-76.73415
1371,Rodeway Inn Pine River,56,46.74467,-94.44869
1372,Hotel Beau Rivage,-1,43.69564,7.27009
1373,Comfort Inn,88,37.11326,-76.50004
1377,Gran Hotel Cervantes by Blue Sea,-1,36.62407,-4.49702
1378,Hampton Inn Altoona,91,40.46761,-78.40921
1379,Hilton Saint John,3,45.2726,-66.06561
1380,Canifor Hotel,-1,35.95497,14.42124
1381,Riu Palace Mexico All Inclusive,-1,20.60767,-87.09244
1383,Holiday Inn Express Hotel & Suites Greenville Airport,92,34.86363,-82.25704
1384,MCM Elegante Suites,-1,38.92346,-104.79379
1385,The Pines Resort,-1,37.32008,-119.55675
1386,Sleep Inn & Suites,69,37.13793,-85.97204
1387,Best Western Hotel Universo,0,41.90042,12.49762
1388,Hilton Garden Inn Bend,87,44.04602,-121.31309
1389,Holiday Inn Express Hotel & Suites Royse City,92,32.96817,-96.332
1390,La Casa Del Mar,-1,26.12657,-80.1055
1391,Extended Stay America Philadelphia - Exton,72,40.05615,-75.65421
1393,NH La CoruAa AtlAntico,-1,43.36818,-8.40067
1394,Lancaster Inn and Suites,-1,40.13235,-76.38084
1395,Embassy Suites Lompoc - Central Coast,74,34.65559,-120.45761
1397,Comfort Inn Claremore,88,36.29294,-95.63085
1398,Mercure Montpellier Centre Antigone,46,43.60884,3.89405
1399,Grand Hotel & Spa,-1,38.35049,-75.07638
1400,Oasis Hotel Apartments,-1,37.86961,23.73962
1401,Hillwinds Inn,-1,36.13283,-81.67443
1402,Brundage Inn,-1,44.91487,-116.13077
1403,Motel 6 Urbana,75,40.13077,-88.19701
1404,Hotel Plinius,-1,45.811,9.07861
1406,Best Western Geelong Motor Inn & Serviced Apartments,0,-38.13614,144.35226
1407,Wingate By Wyndham Lancaster / PA Dutch Country,60,40.03025,-76.23258
1408,Three Cities Gateway Hotel,-1,-29.72193,31.06663
1409,Novotel London Waterloo,51,51.49483,-0.11875
1410,Hampton Inn Holland,91,42.81935,-86.08896
1412,Red Roof Inn Morehead,67,38.18744,-83.47685
1413,Comfort Inn Port Hope,88,43.97333,-78.2878
1415,The Kirkley Hotel & Conference Center Lynchburg,-1,37.36963,-79.18048
1416,Super 8 Oxford,83,33.60281,-85.83337
1417,VIK Hotel San Antonio,-1,28.9215,-13.64163
1419,Hotel Omni Mont-Royal,41,45.50212,-73.5763
1420,Corfos Hotel,-1,37.42458,25.31942
1421,Granny Mouse Country House & Spa,-1,-29.42269,30.09587
1422,Blockade Runner Beach Resort,-1,34.20367,-77.79934
1424,The Lygon Arms,-1,52.03608,-1.85997
1425,Quality Inn,84,34.93091,-88.54369
1428,Shores of Panama by Emerald View Resorts,-1,30.17648,-85.80529
1429,Berjaya Times Square Hotel,-1,3.14271,101.70963
1430,Best Western Hotel Inca,0,41.15114,-8.61466
1431,Comfort Inn Kokomo,88,40.48319,-86.10722
1432,Comfort Inn Fremont,88,41.38181,-83.11647
1433,Comfort Inn Layton,88,41.07316,-111.97352
1434,Parklands Hotel & Apartments,-1,-35.24941,149.14623
1435,Rocha Brava Village Resort,-1,37.09213,-8.44483
1436,Sundial Lodge by All Seasons Resort Lodging,-1,40.6854,-111.55482
1437,Hampton Inn & Suites Athens I-65,91,34.78012,-86.93751
1438,Hilton Knoxville,3,35.96257,-83.91951
1440,Hotel Du Soleil,-1,43.64932,4.63735
1441,Bay Valley Resort & Conference Centre,-1,43.55904,-83.95637
1443,St James Apartments Queenstown,-1,-45.03246,168.66378
1445,Mantra French Quarter Noosa,-1,-26.38725,153.09272
1446,Mercure Rouen Champ Mars,46,49.43592,1.10263
1447,Holiday Inn Express & Suites Richmond,92,37.73451,-84.32562
1448,Comfort Inn And Suites Paw Paw,88,42.20798,-85.89614
1449,Radisson Plaza Hotel at Kalamazoo Center,65,42.29174,-85.58328
1452,Gran Hotel Flamingo,-1,41.69921,2.84388
1453,TRYP Campinas Hotel,-1,-22.89759,-47.05441
1454,Sol Beach House Menorca - Adults only,-1,39.91642,4.03705
1456,Gallia Palace Hotel,-1,42.80889,10.76609
1457,Fairfield Inn & Suites by Marriott Brookings,89,44.30997,-96.75541
1459,Relais Villa Baldelli,-1,43.2882,11.96401
1460,Sorriso Thermae Resort & Spa,-1,40.72075,13.86526
1461,Hotel Mercure Gdansk Stare Miasto,46,54.35601,18.65049
1462,Best Western Plus Gregory Terrace Brisbane,82,-27.45497,153.02658
1463,Hotel Plattenhof,-1,47.37361,8.55346
1465,Motel 6 Mammoth Lakes,75,37.64849,-118.97346
1466,Holiday Inn Berkshires,92,42.69938,-73.11332
1468,Charleston Plaza Hotel,-1,32.87421,-80.01019
1469,Embassy Suites Charleston,74,38.35368,-81.63494
1470,Super 8 Salina,83,38.78368,-97.61909
1471,Hampton Inn & Suites Lodi,91,38.11747,-121.25488
1472,Liberty Lodge,-1,37.82168,-92.14595
1475,DoubleTree by Hilton Queenstown,80,-45.0295,168.72767
1477,Windjammer Landing Villa Beach Resort,-1,14.05982,-60.97343
1479,Hilton Garden Inn Durham/University Medical Center,87,36.00687,-78.9251
1480,Prescott Resort,-1,34.54902,-112.44456
1481,Airport Honolulu Hotel,-1,21.33735,-157.91805
1482,Le Meridien N'fis,33,31.61907,-8.00867
1484,Sandman Hotel & Suites Williams Lake,-1,52.12834,-122.13765
1485,Holiday Hill Inn & Suites,-1,41.66573,-70.13442
1486,Coast Coal Harbour Hotel,29,49.28842,-123.12177
1488,El Colibri Boutique Hotel & Spa,-1,35.56878,-121.10474
1491,Villas at Snowmass Club,-1,39.21896,-106.92307
1493,Extended Stay America Olympia - Tumwater,72,47.02476,-122.92115
1494,The Capital Villa,-1,-26.10311,28.06012
1495,Iberostar Bahia Hotel All Inclusive,-1,-12.54999,-37.98914
1496,Courtyard by Marriott Novato Marin/Sonoma,90,38.06154,-122.53097
1497,Super 8 Wenatchee,83,47.44142,-120.32475
1498,Novotel London City South,51,51.50547,-0.09551
1499,Bird-in-Hand Family Inn,-1,40.03851,-76.17501
1500,Lido Beach Resort,-1,27.31072,-82.57478
1502,The Liberty Hotel - A Starwood Luxury Collection Hotel,-1,42.36182,-71.07083
1503,ibis Styles Lyon Villeurbanne,45,45.77921,4.87375
1506,Radisson Blu Hotel  Kuwait,65,29.30159,48.08697
1508,Quay West Suites Melbourne,-1,-37.82032,144.96753
1509,Fiesta Americana Condesa Cancun All Inclusive,-1,21.08168,-86.77559
1510,Holiday Inn Townsville,92,-19.25995,146.81716
1512,Hotel Astor,-1,19.43477,-99.1603
1513,Comfort Inn & Suites Chillicothe,88,39.77526,-93.54499
1516,Glass House Inn,-1,42.08574,-80.14422
1517,Park Lane Hotel,-1,40.76522,-73.97516
1518,The View Inn & Suites,-1,40.67675,-75.34064
1519,Hampton Inn Bath (Brunswick Area),91,43.91594,-69.81364
1520,Hotel Majestic,-1,40.83581,14.23749
1521,Omni Chicago Hotel,41,41.89452,-87.62424
1523,Super 8 North Palm Beach PGA Blvd,83,26.82064,-80.0593
1524,Comfort Suites Downtown,79,33.97278,-83.36586
1525,Inn at Lithia Springs,-1,33.77431,-84.60651
1526,Best Western Bonum Hotel,0,54.35557,18.65598
1528,Novotel Beaune,51,47.00809,4.84923
1530,Comfort Inn Fallon,88,39.47572,-118.79817
1531,Loews Ventana Canyon Resort,30,32.32587,-110.85302
1532,Country Inn & Suites By Carlson Elk River,-1,45.31395,-93.55678
1533,The Lexington New York City  Autograph Collection,-1,40.75508,-73.97338
1534,Ogunquit River Inn & Suites,-1,43.27141,-70.59775
1535,Ramada Ellsworth,73,44.5328,-68.4091
1536,Hotel San Marco,-1,43.35045,12.57703
1537,Hampton Inn MT Pleasant,91,43.6118,-84.74309
1538,Zilwa Attitude,-1,-19.99734,57.63495
1539,Yourworld International Conference Center,-1,29.30843,120.04681
1540,CedarWoods of Sandton,-1,-26.06645,28.08983
1541,Concorde Inn Suites Pekin,-1,40.55251,-89.60899
1543,Crystal Plaza Hotel,-1,59.33816,18.06908
1544,Latitud Buzios Hotel,-1,-22.75838,-41.88045
1545,Secrets Capri Riviera Cancun All Inclusive,-1,20.69684,-87.01707
1549,Hampton Inn Littleton,91,44.30596,-71.80348
1550,The Sunburst Calistoga,-1,38.58706,-122.57682
1551,Mantra One Sandy Bay Road,-1,-42.88636,147.32764
1552,Holiday Inn Express Rotherham North,92,53.50767,-1.34343
1553,Comfort Inn Guelph,88,43.55075,-80.29562
1555,America's Best Value Inn & Suites,-1,37.83651,-94.32612
1556,Dromhall Hotel,-1,52.05327,-9.50694
1557,Holiday Inn Express Pendleton,92,45.66219,-118.77325
1558,Mercure Camboriu Hotel,46,-26.98755,-48.63295
1559,Hampton Inn & Suites Denton,91,33.19613,-97.12896
1560,Houda Golf and Beach Club,-1,35.78257,10.69549
1562,InterContinental New Orleans,50,29.95036,-90.07037
1563,Quality Inn And Suites,84,30.44595,-91.24403
1565,Super 8 Burlington Iowa,83,40.81964,-91.14008
1566,ANA Hotel Sapporo,-1,43.06561,141.35573
1567,Super 8 Manchester Airport,83,42.94455,-71.45249
1569,RAsidence du Parc Val d'Europe,-1,48.8664,2.76132
1570,Hotel Elisabethpark,-1,47.11452,13.13493
1572,Hotel Fuerte Miramar - Adults Only,-1,36.50839,-4.88098
1574,Campanile Alencon,-1,48.44752,0.11581
1576,Grand Hotel Olympic,-1,41.90675,12.46136
1577,Palladium Hotel,-1,18.99349,72.82499
1578,Best Western Grand Hotel Adriatico,0,43.77371,11.2449
1579,Hotel Grand Victorian,-1,36.64144,-93.26282
1580,Kingfisher Oceanside Resort and Spa,-1,49.63183,-124.92021
1581,Hilton Auckland,3,-36.84204,174.76466
1583,DoubleTree Suites by Hilton Santa Monica,80,34.0112,-118.48902
1585,Inter-Hotel City,-1,49.45227,2.09712
1586,Uptown Palace,-1,45.45725,9.19173
1587,ibis Styles Aalen,45,48.83819,10.09505
1588,Harrah's Casino Hotel Reno,-1,39.52783,-119.81217
1589,HAtel Cofortel,-1,46.79002,-71.35335
1590,Pullman Melbourne Albert Park,28,-37.84949,144.97797
1594,Fairfield Inn & Suites by Marriott New Buffalo,89,41.77822,-86.73041
1595,Red Roof Inn Tupelo,67,34.27597,-88.72071
1596,Baymont Inn & Suites Fargo,52,46.8616,-96.83364
1597,Comfort Inn Easton,88,38.78306,-76.05992
1598,Ansonborough Inn,-1,32.78363,-79.92837
1599,Fairfield Inn by Marriott Binghamton,89,42.13034,-75.90583
1600,Extended Stay America Chicago - Hillside,72,41.87309,-87.8954
1601,Motel 6 Rapid City,75,44.1029,-103.20182
1602,Hotel Elan,-1,37.3183,-121.87592
1603,Charleston Marriott Town Center,2,38.35591,-81.63865
1604,Stoney Creek Des Moines,-1,41.65668,-93.73383
1607,Quality Inn,84,32.56273,-85.50321
1608,Santorini Princess Luxury Spa Hotel,23,36.44757,25.42573
1609,Hampton Inn DuBois,91,41.1216,-78.72346
1610,Best Western Invermere Inn,0,50.50295,-116.02711
1611,Holiday Inn Rugby/ Northampton M1  Jct 18,92,52.35036,-1.14728
1613,Econo Lodge Sebring,70,27.56925,-81.51429
1615,Sun Hall Beach Hotel Apts.,-1,34.91573,33.63649
1617,Hampton Inn Danville,91,36.59547,-79.40593
1618,Hotel Sorrento,-1,47.60889,-122.32625
1620,Royal Apart Hotel,-1,36.44941,28.22202
1621,Holiday Inn Express and Suites Winona North,92,33.48639,-89.75944
1622,Maison Dupuy Hotel,-1,29.9592,-90.06842
1623,Riva Hvar Yacht Harbour Hotel,-1,43.17068,16.44121
1624,Kronborg Inn,-1,34.59528,-120.14699
1626,Garden Apartment Hotel,-1,43.50732,16.43278
1628,Globales Cortijo Blanco,-1,36.48503,-4.97796
1629,Servatur Puerto Azul - All Inclusive,-1,27.78712,-15.71719
1630,Best Western Austrian Chalet,0,49.99935,-125.23039
1632,The Buccaneer,-1,17.75416,-64.68148
1633,The Connacht Hotel,-1,53.27944,-9.023
1634,The Atherton Hotel  an Ascend Hotel Collection Member,44,40.79157,-77.86486
1635,Ballathie Country House Hotel and Estate,-1,56.51501,-3.38949
1636,Bayside Resort Hotel,-1,41.65544,-70.25618
1638,Quality Inn & Suites,84,41.56104,-85.79626
1641,Bell Tower Hotel,-1,42.27942,-83.73963
1642,Grange Beauchamp,-1,51.52052,-0.12462
1643,Super 8 Motel - Helena,83,46.58984,-112.00154
1644,Springhill Suites by Marriott Victorville Hesperia,78,34.42752,-117.37762
1646,Hampton Inn & Suites Columbia at University,91,38.93397,-92.32473
1647,Lago Montargil & Villas,-1,39.07241,-8.16785
1648,Novotel Tunis Mohamed V,51,36.81113,10.18458
1649,Novotel Karlsruhe City,51,49.00382,8.40206
1650,THe Koala Garden Suites,-1,27.76283,-15.59219
1652,Best Western Tin Wis Resort Lodge,0,49.13065,-125.90011
1653,Best Western Plus Otonabee Inn,82,44.28935,-78.30309
1654,TRYP Valencia Almussafes Hotel,-1,39.3063,-0.4131
1655,Coast Village Inn & Cottages,29,43.29959,-70.58678
1656,Quality Inn Covington,84,37.79094,-79.99757
1657,Hampton Inn Ft. Wayne/Dupont Road,91,41.17895,-85.10018
1659,Sleep Inn & Suites,69,46.84398,-96.86483
1661,Hotel Campanile Nice Centre - Acropolis,-1,43.70209,7.27957
1662,Electra Palace Resort -All Inclusive,-1,36.4219,28.1462
1663,1800 Atlantic Suites,-1,24.55164,-81.77887
1665,Dana Point Marina Inn,-1,33.46176,-117.69588
1666,Hotel Lucerna Hermosillo,-1,29.09759,-110.94892
1667,The Chattanoogan,-1,35.04171,-85.3097
1668,Pacific Hotel,-1,51.51598,-0.17138
1669,Country Inn River Falls,-1,44.876,-92.62536
1670,Radisson Blu Edwardian Berkshire Hotel,65,51.51497,-0.14843
1671,Holiday Inn Express Hotel & Suites ANDERSON NORTH,92,40.04837,-85.65262
1672,Residence Inn Marriott Carlisle,81,40.23112,-77.14444
1673,Super 8 Cedar Falls,83,42.46954,-92.44772
1675,The Hotel California - A Piece of Pineapple Hospitality,-1,37.78685,-122.41285
1676,Menzies Hotels Cambridge,-1,52.25523,0.02421
1678,Courtyard Philadelphia Coatesville/Exton,-1,39.99321,-75.82268
1680,Sugarloaf Mountain Hotel,-1,45.05382,-70.3085
1683,Hotel Kennedy Nova,-1,35.90714,14.49841
1684,Best Western Plus Brunswick Bath,82,43.90043,-69.91095
1685,Grand Hotel Excelsior Amalfi,-1,40.63283,14.5926
1686,Vitality Hotel Punta,-1,44.52402,14.49793
1687,Parrot Cay by COMO,-1,21.93606,-72.05411
1688,Sheraton Universal Hotel,76,34.13875,-118.35849
1689,Weston Suites & Hotel,-1,18.46454,-69.93194
1690,Sol FalcA All Inclusive,-1,39.92901,3.84344
1691,Hotel Como,-1,45.80204,9.09011
1692,Days Inn Princeton,85,41.39703,-89.46856
1693,Mels Weldon Dongguan Humen,-1,22.82294,113.67766
1696,Novotel Dijon Sud,51,47.27953,5.00757
1697,Hotel Etoile Trocadero,-1,48.86623,2.28721
1698,ARCOTEL Nike,-1,48.31065,14.29449
1699,Hotel 309,-1,40.73984,-74.00276
1700,Econo Lodge Ellensburg,70,47.00547,-120.58612
1701,ShoreBreak  a Kimpton Hotel - Huntington Beach,47,33.65788,-118.00293
1702,Beachgate CondoSuites & Motel,-1,27.81394,-97.06916
1703,Holiday Inn Express Hotel & Suites Chambersburg,92,39.91054,-77.65015
1704,La Bellasera Hotel And Suites,-1,35.58843,-120.69634
1705,Baymont Inn and Suites Eau Claire WI,-1,44.77336,-91.43034
1706,Holiday Inn Resort Le Touquet,92,50.51592,1.59601
1708,Aparthotel Adagio Access Toulouse Jolimont,4,43.61478,1.46397
1709,Days Inn Muncie,85,40.22168,-85.42667
1711,Bahia Palace,-1,37.71649,-25.47146
1714,Dan Tel Aviv,-1,32.07945,34.768
1715,Hampton Inn Jackson,91,42.27556,-84.42895
1718,ibis Dunkerque Centre,45,51.0406,2.38004
1719,Omni Royal Orleans Hotel,41,29.95612,-90.06572
1721,Maui Eldorado Kaanapali by Outrigger,-1,20.92776,-156.69046
1723,Wingate by Wyndham Champaign,60,40.1373,-88.25199
1725,Hotel Ulisse,-1,40.73836,13.95467
1726,The Gardens at West Maui,-1,20.99645,-156.66439
1730,Hotel Milan Speranza Au Lac,-1,45.88449,8.53999
1731,Edgewater Inn And Suites,-1,35.14289,-120.64354
1732,Quality Inn Brookville,84,41.16744,-79.09827
1735,Hotel Natali,-1,36.6284,-4.49934
1736,Concorde Hotel Doha,-1,25.2754,51.54014
1737,Hotel La Meridiana,-1,43.10129,12.34315
1738,Mare Monte,-1,36.726,25.27306
1739,Country Inn & Suites By Carlson  Frackville (Pottsville)  PA,-1,40.73656,-76.29841
1740,Holiday Inn Express & Suites American Fork - North Provo,92,40.36031,-111.7818
1741,Best Western Plus Eagleridge Inn & Suites,82,38.32296,-104.61852
1743,Days Inn and Suites Brinkley,85,34.91094,-91.19645
1745,Grand Hotel Cadenabbia,-1,45.98779,9.23445
1746,Best Western Belleville,0,44.1888,-77.39652
1747,Homewood Suites by Hilton Bozeman,77,45.70027,-111.06258
1748,Hampton Inn Wooster,91,40.84991,-81.94638
1749,Nhow Milano,-1,45.45116,9.16079
1750,Comfort Suites Jacksonville,79,34.7802,-77.38765
1751,Dorisol Florasol Hotel,-1,32.63844,-16.93329
1753,Grand HAtel du Midi ChAteaux & HAtels Collection,-1,43.6078,3.87918
1754,Days Inn Dawson Creek,85,55.73969,-120.22095
1759,Nagoya Tokyu Hotel,-1,35.16815,136.91404
1760,NH Pamplona IruAa Park,-1,42.81252,-1.66553
1761,Atahotel Contessa Jolanda,-1,45.49887,9.19079
1762,Pokolbin Village,-1,-32.77374,151.31029
1763,The Westin Resort  Guam,66,13.51748,144.80751
1764,DoubleTree by Hilton Hotel Boston - Westborough,80,42.28897,-71.57243
1765,ClubHotel Riu Tropicana - All Inclusive,-1,39.45729,3.27573
1767,Woodmark Hotel and Still Spa,-1,47.65755,-122.20648
1768,Novotel Nantes Centre Gare,51,47.21393,-1.543
1769,Americinn Ottumwa,43,41.01996,-92.4137
1770,Harrington Hall,-1,53.33498,-6.2633
1771,Algonquin Resort St Andrews by-the-Sea Autograph Collection,-1,45.07974,-67.05488
1772,Kursaal Hotel,-1,43.96642,12.74042
1774,Hotel Monaco Denver  a Kimpton Hotel,47,39.74771,-104.99245
1775,Peppermill Resort Spa Casino,-1,39.49751,-119.79925
1776,Serhs Natal Grand Hotel,-1,-5.85608,-35.18192
1777,La Quinta Inn Cheyenne,86,41.1206,-104.84737
1778,Embassy Suites Santa Clara - Silicon Valley/Great America,74,37.38336,-121.97946
1779,Radisson Blu Park Hotel  Oslo,65,59.90334,10.63087
1780,Hilton Garden Inn Yakima,87,46.60325,-120.50151
1781,Hard Rock Hotel Chicago,-1,41.88661,-87.62457
1782,Finsbury Serviced Apartments,-1,51.56425,-0.10803
1783,Comfort Suites Kelowna,79,49.8934,-119.41617
1784,Hotel Salo' du Parc,-1,45.60972,10.53623
1785,Mandarin Oriental Miami,-1,25.76505,-80.18491
1787,Grand View Inn and Suites,-1,36.64325,-93.26441
1789,Holiday Inn Little Rock-Airport-Conference Center,92,34.71526,-92.22417
1790,Best Western Holiday Manor,0,38.37102,-97.62646
1791,GuestHouse Inn Enumclaw,22,47.20288,-121.98834
1793,Hotel Campanile Madrid - AlcalA de Henares,-1,40.48178,-3.39411
1794,Quality Inn Oakwood,84,34.22279,-83.86635
1795,Travelodge Docklands,57,-37.81913,144.95006
1796,Super 8 Norwich,83,42.54695,-75.52515
1797,Hampton Inn & Suites Effingham,91,39.13948,-88.56635
1798,Viva Wyndham Maya Resort - All Inclusive,60,20.60843,-87.09153
1799,Hampshire City Hotel - Groningen,-1,53.21721,6.57267
1800,Best Western Salbasgeon Inn & Suites Of Reedsport,0,43.69915,-124.1105
1801,Queens Hotel and Spa,-1,50.71942,-1.86581
1802,The Camden Court Hotel,-1,53.33347,-6.26506
1803,Ascot Hotel,-1,55.67696,12.56518
1804,Tanka Village,-1,39.12479,9.52474
1805,Aparthotel Adagio Paris Centre Tour Eiffel,4,48.84995,2.28546
1806,Best Western Cedar Park Inn,34,53.48841,-113.49351
1807,Hyatt Place Colorado Springs,1,38.89663,-104.83185
1808,Stage Stop Inn Williams,-1,39.15645,-122.15086
1809,Ramada Hotel and Suites Coventry,73,52.40378,-1.5217
1810,Hampton Inn & Suites Southern Pines-Pinehurst,91,35.15648,-79.42184
1811,Comfort Inn North - Air Force Academy Area,88,38.92467,-104.81446
1812,Comfort Inn New Castle,88,40.98279,-80.30756
1813,La Quinta Inn and Suites New Braunfels,86,29.69908,-98.0922
1814,Courtyard Bloomington Normal,-1,40.5151,-88.95131
1818,Hotel Kenzi Tower,-1,33.58688,-7.63221
1819,Hotel Goldgasse,-1,47.79939,13.046
1820,Cedarwood Inn of Ashland,-1,42.18105,-122.68305
1822,Emerald Shores Resort,-1,29.18328,-80.98643
1823,Horseshoe Bossier Casino & Hotel,-1,32.51537,-93.73704
1824,Courtyard by Marriott Decatur,90,34.58772,-87.02953
1825,Ramada Middletown,73,41.52051,-71.28775
1827,Grand Seas Resort,-1,29.26127,-81.0246
1829,Boston Hotel Buckminster,-1,42.3486,-71.09792
1830,Holiday Inn Express Lexington,92,37.79834,-79.42019
1832,Copthorne Hotel Auckland City,-1,-36.84954,174.77331
1833,Opera Hotel & Spa,-1,56.94772,24.11845
1834,Galeon Suites,-1,39.89284,3.07824
1835,Beach Terrace Motor Inn,-1,38.98843,-74.81181
1837,Radisson Hotel Santo Domingo,65,18.47798,-69.92767
1838,Fairfield Inn by Marriott Bay City,89,43.62372,-83.88821
1840,Jurys Inn Sheffield,-1,53.37677,-1.47052
1841,Super 8 Dodge City,83,37.75394,-100.03675
1843,Hampshire Hotel,-1,49.19154,-2.10252
1844,Hotel H2 Avila,-1,40.66367,-4.68024
1845,Hotell Fridhemsgatan,-1,61.0027,14.53454
1846,SpringHill Suites by Marriott Napa Valley,78,38.2245,-122.26248
1847,Scandic Park Helsinki,39,60.17921,24.92856
1848,Fairfield Inn & Suites Holland,89,42.82069,-86.09
1851,Hollywood Hotel-The Hotel of Hollywood,-1,34.09278,-118.29171
1853,Courtyard by Marriott Shanghai Puxi,90,31.24509,121.45104
1855,Hotel Tokyo,-1,41.90168,12.50354
1856,Elbow Beach,-1,32.27538,-64.77758
1858,Appart'City Valence Centre,-1,44.92802,4.89137
1859,Quality Inn & Suites,84,47.70001,-116.78917
1861,Holiday Inn Hinton,92,53.39725,-117.5964
1862,Central Ridge Boutique Hotel,-1,-45.03361,168.66456
1863,RAMADA PLAZA Berlin City Centre Hotel & Suites,73,52.49384,13.33356
1866,The Dolder Grand,-1,47.37241,8.57411
1867,Econo Lodge Oceanfront,70,38.35786,-75.07326
1869,Econo Lodge Inn & Suites,70,38.13638,-121.26079
1870,Fireside Inn and Suites Nashua,-1,42.77716,-71.48979
1871,Comfort Inn And Suites,88,43.69018,-98.00931
1872,Courtyard by Marriott Bhopal,90,23.23286,77.42929
1873,Summer Nites,-1,38.99479,-74.80396
1874,Macquarie Lodge Luxury Apartments,-1,-26.39265,153.08684
1875,Hotel Laxnes,-1,64.16709,-21.69466
1876,De Rose Palace Hotel,-1,43.77468,11.24092
1877,Quality Inn Newnan,84,33.39734,-84.74013
1878,La Quinta Inn & Suites Silverthorne-Summit Co,86,39.62998,-106.06563
1879,Sunshine Suites Resort,-1,19.33824,-81.37862
1880,Springhill Suites by Marriott Lawrence,78,38.97318,-95.23531
1886,Wingate by Wyndham Lake George,60,43.41047,-73.70869
1887,Hotel Cottage,-1,-34.89436,-56.05979
1888,Holiday Inn Xiaoshan Hangzhou,92,30.17988,120.25899
1890,azuLine Apartamentos Sunshine,-1,38.96687,1.29501
1891,NH Ciudad de Cuenca,-1,40.06228,-2.13259
1892,Globales Verdemar Apartamentos,-1,39.51954,2.47616
1893,The Marble Arch by Montcalm,-1,51.5152,-0.15985
1894,Comfort Inn & Suites Watertown - 1000 Islands,88,43.97794,-75.94043
1895,Hotel Subur,-1,41.23466,1.80669
1896,Comfort Suites Lafayette,79,40.41845,-86.81712
1897,Ferraretto Hotel,-1,-23.996,-46.25726
1899,Kyriad Prestige Dijon Centre,-1,47.32344,5.02974
1900,Melia Buenos Aires Hotel & Convention Center,-1,-34.59699,-58.37292
1901,Red Roof Inn South Deerfield,67,42.47207,-72.61455
1904,Cliffbreakers Riverside Resort,-1,42.31585,-89.07089
1905,Kauai Marriott Resort,2,21.96315,-159.35328
1908,Comfort Suites Starkville,79,33.45546,-88.7949
1910,Courtyard by Marriott Waikiki Beach,90,21.28114,-157.82746
1911,Disney's Hotel Santa FeA,-1,48.87169,2.79645
1912,Zermatt Resort,-1,40.52468,-111.4875
1913,Hotel Donatello Imola,-1,44.34556,11.68795
1914,Parkwood Lodge,-1,45.13175,-87.21655
1915,Hotel Unicorno,-1,43.77242,11.24908
1917,Econo Lodge Rapid City,70,44.10691,-103.20522
1918,Residence Inn Raleigh Midtown,81,35.82799,-78.62368
1920,Hampton Inn and Suites Woodland- Sacramento Area,91,38.67552,-121.72647
1922,The Albert Street Inn Ltd,-1,43.3704,-80.98151
1923,Comfort Inn Beckley,88,37.79189,-81.21933
1924,La Quinta Inn & Suites Dalton,86,34.76982,-85.00278
1925,Econo Lodge,70,39.75695,-87.00645
1926,Campanile Calais,-1,50.94817,1.87768
1927,Comfort Inn & Suites Near Temecula Wine Country,88,33.56753,-117.20612
1928,Fairmont Tremblant,35,46.21513,-74.586
1930,Blue Chip Casino Hotel and Spa,-1,41.71934,-86.89206
1933,Best Western Nittany Inn Milroy,0,40.70356,-77.59129
1934,Moda Hotel,-1,49.27954,-123.12044
1935,The Plettenberg Hotel,-1,-34.05404,23.37757
1936,Hotel Santa Margherita Palace,-1,44.33613,9.21303
1937,Wingate by Wyndham Streetsboro/Cleveland Southeast,60,41.24594,-81.35837
1938,The Winchester Hotel & Spa,-1,51.06932,-1.31613
1939,Park Inn by Radisson Pribaltiyskaya Hotel,65,59.9391,30.21594
1940,Hampton Inn Batesville,91,34.3101,-89.92787
1941,San Antonio Summerland,-1,37.45483,25.33388
1943,Hampton Inn Lindale/Tyler,91,32.46953,-95.38836
1944,Hotel Biltmore,-1,14.59702,-90.51637
1945,Hampton Inn & Suites Annapolis,91,38.97555,-76.54838
1948,Rilano 24/7 Hotel MAnchen City,-1,48.13718,11.56101
1949,Motel 6 Kingston,75,44.28219,-76.56593
1950,Embassy Suites Hotel New Orleans,74,29.9447,-90.06627
1952,Super 8 Lake Jackson / Clute,83,29.01202,-95.42446
1953,Holiday Inn Express Hotel & Suites CLARINGTON - BOWMANVILLE,92,43.89525,-78.69353
1954,The Cardiff Hotel & Spa,-1,18.45809,-77.32105
1955,Clarion Hotel Airport,58,36.06407,-79.90969
1956,Stage Neck Inn,-1,43.13125,-70.63931
1957,Hawthorn Suites by Wyndham Orlando Convention Center,60,28.41884,-81.4659
1958,Hilton Garden Inn Athens Downtown,87,33.95971,-83.37353
1960,Avenue Boutique Hotel,-1,55.68499,12.55277
1961,Grand Hotel,-1,50.06384,19.93775
1963,Crowne Plaza Concord / Walnut Creek,71,37.9808,-122.05639
1964,Golden Tulip Porto Gaia Hotel & Spa,-1,41.13133,-8.6685
1965,Holiday Inn & Conference Center Marshfield,92,44.66095,-90.17796
1966,Red Lion Hotel Oakland International Airport,42,37.73047,-122.19963
1967,Baymont Wichita Falls,-1,33.87634,-98.55809
1968,Days Inn - Barrie,85,44.35528,-79.69476
1969,Best Western Of Huron,0,44.34246,-98.21411
1970,Wingfield Inn and Suites,-1,37.71059,-85.83248
1971,Hotel Graal,-1,40.65215,14.6127
1972,Holiday Inn Hotel & Suites Owatonna,92,44.13744,-93.25587
1973,Wingate by Wyndham - Columbia,60,38.95794,-92.29077
1974,NH LogroAo Herencia Rioja,-1,42.46566,-2.45295
1975,Hampton Inn Salisbury,91,38.39494,-75.56281
1978,Hampton Inn and Suites Holly Springs,91,35.63591,-78.83675
1979,The Westin Pasadena,66,34.14917,-118.14147
1981,Anzac Hotel,-1,40.1489,26.40234
1983,Valueinn Motel,-1,44.06767,-123.14052
1985,Homewood Suites by Hilton Cleveland-Beachwood,77,41.46771,-81.49349
1987,Melia Costa Del Sol,-1,36.62139,-4.4956
1988,Zenitude La City,-1,47.23575,6.01409
1989,Hydroussa Hotel,-1,37.34851,23.46553
1991,Golden Tulip Carthage Tunis Hotel,-1,36.90519,10.31257
1992,Baymont Inn & Suites Waterloo,52,42.46705,-92.3203
1994,InterContinental Hangzhou,50,30.2442,120.20847
1996,DoubleTree by Hilton San Jose,80,37.37079,-121.9223
1998,Loews Don CeSar Hotel,30,27.70949,-82.73617
1999,Quality Inn National Fairgrounds Area,84,32.47446,-83.74759
2000,Country Inn & Suites By Carlson  Helen  GA,-1,34.70179,-83.72522
2001,Best Western Premier Hotel Slon,27,46.0526,14.50364
2002,Hotel Europejski,-1,50.06458,19.94649
2004,Maple Tree Inn,-1,37.35938,-122.02192
2005,SpringHill Suites Pueblo Downtown,78,38.26656,-104.60694
2006,BEST WESTERN PREMIER Hotel Astoria,27,45.80732,15.98033
2008,LHotel Montreal,-1,45.5032,-73.55887
2009,Kempinski Nile Hotel Cairo,9,30.03877,31.23036
2010,Microtel Inn & Suites by Wyndham Marion/Cedar Rapids,63,42.03669,-91.55231
2011,Hotel Regina,-1,48.21617,16.35976
2012,Hilton North Raleigh Midtown,3,35.82918,-78.61947
2015,Super 8 State College,83,40.78528,-77.83539
2016,Sheraton Dongguan Hotel,76,22.93626,113.66421
2018,Red Lion Inn & Suites Tucson North - Foothills,42,32.34154,-110.97715
2019,Southern Oaks Inn,18,29.91708,-81.32458
2020,Hibiscus Motel,45,-28.64275,153.61501
2021,Microtel Inn & Suites by Wyndham Buckhannon,63,38.99977,-80.23235
2022,Courtyard by Marriott Altoona,90,40.45628,-78.40179
2023,The St. Valery Guest House,-1,55.94743,-3.22167
2024,Sleep Inn And Suites Bismarck,69,46.83816,-100.76942
2026,Morrison Hotel 114,-1,4.69689,-74.05017
2027,Royal Palms Resort and Spa - Destination Hotels & Resorts,-1,33.50425,-111.96923
2028,Scenic Hotel Southern Cross,-1,-45.8781,170.50096
2029,Sun God Lodge,-1,36.38745,-105.58424
2032,Comfort Inn & Suites Fillmore,88,38.94955,-112.34647
2033,Comfort Inn Logan,88,41.69682,-111.86074
2035,Silken Concordia Hotel,-1,41.37497,2.16095
2036,Inn at the Prom,-1,45.99201,-123.93029
2037,Holiday Inn Express West Point,92,41.33936,-73.97763
2038,Hyatt Regency Rochester,1,43.15672,-77.60853
2040,Iberostar Tucan All inclusive,-1,20.60529,-87.09464
2042,Ever Caparica Beach & Conference Hotel,-1,38.64133,-9.23677
2043,Quality Inn,84,42.92567,-83.99779
2044,Novotel Paris Les Halles,51,48.86061,2.34662
2045,Millennium Harvest House Boulder,24,40.01202,-105.25873
2046,The Desmond Hotel and Conference Center,-1,42.72874,-73.79807
2047,Merton Hotel,-1,49.17994,-2.09372
2048,Holiday Inn Express Hotel & Suites Eugene/Springfield-East,92,44.08393,-123.03956
2050,The Table Bay Hotel,-1,-33.90205,18.42245
2051,Days Inn Gretna Green,85,55.00821,-3.08384
2052,Boulcott Suites,-1,-41.28902,174.77395
2053,Staycity Serviced Apartments - West End,-1,55.94328,-3.2126
2054,Apartamentos Sandic,-1,38.99781,1.57877
2056,Carmel by the Sea,-1,-28.03251,153.43458
2057,Kivotos Luxury Boutique Hotel,-1,37.42024,25.31977
2058,Arena Hotel,-1,37.33178,-121.90614
2059,Servatur Casablanca,-1,27.79186,-15.70624
2061,Le Lion d'Or,-1,49.27599,-0.69854
2063,Tivoli Coimbra,-1,40.21478,-8.43288
2064,The Murray Premises Hotel,-1,47.56179,-52.7086
2065,Leonardo Royal Hotel Mannheim,-1,49.48281,8.47822
2066,Benbow Historic Inn,-1,40.06705,-123.78965
2067,Courtleigh Hotel And Suites,-1,18.00421,-76.78799
2068,The Inn At Virginia Tech and Skelton Conference Center,-1,37.2316,-80.43295
2069,Fiesta Hotel Cala GraciA - Adults Only,-1,38.99286,1.29092
2070,Hilton Niseko Village,3,42.84731,140.68508
2073,The Stonebridge Inn - Destination Hotels & Resorts,-1,39.20937,-106.95126
2074,Marina Plaza - Apartments,-1,37.07543,-8.11856
2075,Ritz Hotel,-1,55.94694,-3.21746
2076,Lovers Key Beach Club,-1,26.4058,-81.87602
2077,Island Hotel Newport Beach,-1,33.62077,-117.87575
2078,Best Western Prineville Inn,0,44.30337,-120.83035
2080,Hilton Burton St Georges Park,3,52.808,-1.74444
2081,RH Corona del Mar,-1,38.53754,-0.13741
2083,Inn On Barons Creek,-1,30.26892,-98.86982
2086,Barrier Island Station at Duck,-1,36.17434,-75.75635
2087,Villa Felice Relais,-1,40.62705,14.58635
2088,BaumaniAre,-1,43.74618,4.79588
2089,Muri Beach Club,-1,-21.25495,-159.72943
2090,Stoneridge Mountain Resort,-1,51.08157,-115.34034
2091,Cosmopolitan Hotel,-1,36.42701,28.19803
2092,Quality Inn,84,41.19131,-80.45604
2093,Rogue Regency Inn and Suites,-1,42.35313,-122.87556
2094,The Waterside Hotel,-1,57.52249,-1.81684
2095,Hotel de France,-1,49.19078,-2.09708
2098,Lahaina Shores Beach Resort,-1,20.86756,-156.67485
2099,Pullman Timi Ama Sardegna - Spa Experience,28,39.12241,9.51594
2101,Park Inn by Radisson Aberdeen,65,57.14253,-2.11034
2102,Hotel San Luis,-1,39.83549,4.29638
2103,Extended Stay America - Fremont - Newark,72,37.53242,-122.00278
2104,Urbanica Suites,-1,-34.55356,-58.45207
2106,La Palm Royal Beach Hotel,-1,5.56312,-0.14352
2109,Ramada Limited Sherwood Park,73,53.54565,-113.31902
2110,Hotel Jutlandia,-1,57.43736,10.53715
2111,Staybridge Suites Bismarck,61,46.83738,-100.78189
2113,The Lenox Hotel Boston,-1,42.34928,-71.07941
2114,Appin House - Guest house,-1,55.93377,-3.17176
2115,Skyline Lodge and Restaurant,-1,35.0769,-83.21244
2118,Hotel Du Lac,-1,45.98686,9.26047
2120,Pinnacles Resort & Spa,-1,-20.27151,148.72077
2121,Best Western Bidarka Inn,0,59.64247,-151.55669
2122,The Grand Lodge Crested Butte,-1,38.90028,-106.96646
2123,Evenia Hawai,-1,41.70466,2.85524
2124,Lux Appartamenti - Apartment,-1,41.89025,12.51759
2125,Shasta Inn,-1,41.30694,-122.31101
2126,Middlebury Inn,-1,44.01429,-73.16596
2127,Hotel Mistral,-1,37.34959,23.46734
2128,Hampton Inn & Suites Marshalltown,91,42.00701,-92.91209
2129,Mykonos Palace Beach Hotel,-1,37.41452,25.34459
2130,Amathus Beach Hotel Limassol,-1,34.70964,33.13271
2132,Camel's Garden Hotel,-1,37.93616,-107.81296
2133,Maui Sunset,-1,20.75574,-156.45691
2134,Hotel Chagall,-1,57.04696,9.91443
2136,Blue Spruce Motel & Townhouses,-1,41.91683,-70.55685
2137,Sinalei Reef Resort & Spa,-1,-14.01151,-171.77976
2138,The Warwick Fiji,-1,-18.21843,177.73677
2139,Ulisse Deluxe Hostel,-1,40.62525,14.36786
2140,Hotel Petinos,-1,37.41409,25.34255
2141,J House Greenwich,-1,41.0407,-73.58462
2142,Kenneth Mackenzie,-1,55.9463,-3.18323
2143,Petinos Beach Hotel,-1,37.41408,25.34255
2145,Menzies Guest House,-1,55.93937,-3.20832
2146,Viceroy New York,-1,40.76479,-73.97831
2147,Atton Vitacura,-1,-33.38955,-70.56941
2149,Holiday Inn Express Simpsonville,92,34.71827,-82.25817
2150,Radisson Blu Lillehammer Hotel,65,61.11775,10.4774
2151,White Elephant Hotel,-1,41.28868,-70.09693
2152,Medplaya Aparthotel San Eloy,-1,41.7297,2.90735
2154,hotelVetro,-1,41.65886,-91.5318
2155,Brook Red Lion Hotel,42,51.8896,0.89965
2156,Nissaki Boutique Hotel,-1,37.41475,25.34106
2157,Tonino Lamborghini Hotel City Center Kunshan,-1,31.38237,120.95306
2159,Kivo Art & Gourmet Hotel,-1,39.15465,23.46958
2160,Amman Airport Hotel,-1,31.73289,35.94484
2163,PortAventura Hotel El Paso - All Inclusive,-1,41.08809,1.1485
2164,Kinzie Hotel,-1,41.88928,-87.62877
2165,Astor Crowne Plaza New Orleans,71,29.95372,-90.06965
2166,Warwick Le Lagon Resort & Spa,-1,-17.76427,168.30816
2167,Globales America,-1,39.45873,3.2789
2169,Hotel BahAa PrAncipe Coral Playa,-1,39.50975,2.54205
2170,Holiday Inn Express Hotel & Suites Pikeville,92,37.46533,-82.52763
2171,DoubleTree by Hilton Hotel Kosice,80,48.71739,21.25987
2172,Das Alpenhaus Kaprun,-1,47.27297,12.75955
2173,Blue Tree Premium Faria Lima,-1,-23.59114,-46.68119
2174,Comfort Inn,88,40.05548,-85.64844
2177,The Woodridge Inn,-1,39.67849,-85.13852
2178,Oxford Suites Chico,-1,39.72624,-121.80611
2180,Hotel Svanen  Billund,-1,55.72922,9.1327
2183,Albergo Rossini 1936,-1,44.49572,11.35163
2184,Super 8 Oxford Ms,83,34.36252,-89.56212
2185,Kimball Terrace Inn Northeast Harbor,-1,44.29206,-68.28591
2186,Hotel Belair,-1,40.62786,14.3628
2187,Sheraton Fiji Resort,76,-17.77313,177.36772
2188,Grand Mercure Azure Sea Whitsundays,46,-20.27415,148.71612
2189,Holiday Inn Port Arthur-Park Central,92,29.93832,-93.98181
2191,Moorings Hotel,-1,-17.73074,168.31168
2193,Tropicana Lagoon Apartments,-1,-17.73619,168.33995
2194,Kefalonia Bay Palace,-1,38.30492,20.60354
2197,DoubleTree by Hilton Hotel Midland Plaza,80,31.99736,-102.07469
2198,Grand Hotel and Casino,-1,-17.7358,168.31197
2201,Caye Casa,-1,17.91914,-87.9628
2202,Stone Gate Inn,-1,44.62675,-79.42263
2203,Ramada Drumheller Hotel and Suites,73,51.4578,-112.7114
2204,AC Baqueira Ski Resort  Autograph Collection,-1,42.69948,0.93345
2205,Hilton Queenstown Resort & Spa,3,-45.0295,168.72767
2206,Fiesta Inn Coatzacoalcos,-1,18.14909,-94.48017
2207,Dann Carlton Medellin Hotel,-1,6.20701,-75.57133
2208,Radisson Blu Hotel Norge  Bergen,65,60.39154,5.32349
2209,Coal Miners` Cabin,-1,78.20275,15.59414
2210,Sleep Inn & Suites Auburn,69,32.56212,-85.50166
2212,McKinley Chalets,-1,63.75039,-148.89979
2213,Alston Inn Hotel,-1,-0.20348,-78.49353
2214,Fountain Court Apartments - Harris,-1,55.94504,-3.21236
2215,Oxford Suites Downtown Spokane,-1,47.66409,-117.41198
2216,Hotel Bonaparte Boutique,-1,-33.43248,-70.6063
2217,Sandcastle Resort and Club,-1,42.06251,-70.14921
2218,Scuba Lodge,-1,12.10216,-68.92566
2219,Quality Inn Prescott,84,34.54517,-112.45638
2220,Hilton Noumea La Promenade Residences,3,-22.30284,166.44511
2221,The Padre Hotel,-1,35.37558,-119.02126
2222,Cliff Hotel,-1,52.5704,1.73074
2225,Days Hotel - Scottsdale,-1,33.51103,-111.92596
2226,Relais il Frantoio - Apartments,-1,40.60423,14.35503
2228,Comfort Inn And Suites,88,34.39952,-103.16807
2229,The Griswold Inn,-1,41.35143,-72.3868
2230,pentahotel Ipswich,-1,52.05208,1.13992
2232,Kontiki Beach Resort CuraAao,-1,12.08936,-68.89979
2234,Quality Inn & Suites Big Rapids,84,43.68033,-85.48333
2236,Howard Johnson Inn Kingston,54,44.23794,-76.50402
2238,Woodcliff Hotel and Spa,-1,43.04518,-77.45575
2240,Trade Winds Hotel,-1,17.15653,-61.84229
2241,Roosevelt Inn And Suites,-1,43.02713,-73.79237
2242,Island House Beach Resort,-1,27.25928,-82.53884
2243,Hotel della Piccola Marina,-1,40.54897,14.23726
2244,Hollywood Orchid Suites,-1,34.10311,-118.34021
2247,Regent Star Hotel,-1,10.60524,-61.34485
2249,Westmark Fairbanks Hotel & Conference Center,-1,64.84022,-147.71455
2250,Dorion Hotel,-1,37.42052,25.31992
2251,Apex City Quay Hotel & Spa,-1,56.46082,-2.9626
2252,Mountain Lodge at Telluride - A Noble House Resort,-1,37.93327,-107.85087
2253,Days Inn Southampton Rownhams,91,50.95727,-1.44783
2254,Astral Tower and Residences at The Star,-1,-33.86835,151.19433
2255,Hamilton Princess & Beach Club - a Fairmont Managed Hotel,35,32.29136,-64.79195
2257,Motel 6 Redmond,75,44.25518,-121.18218
2258,Comfort Inn And Suites,88,41.7122,-86.17909
2260,Tidewater Inn,-1,41.27795,-72.58583
2261,Masseria & Spa Luciagiovanni,-1,40.37107,18.20218
2263,Boardwalk Beach Resort Condominium,-1,30.17147,-85.79461
2264,Cedar Lodge,-1,37.66025,-119.8527
2265,Comfort Inn & Suites Muncie,88,40.22151,-85.44268
2266,Courtyard Marriott Binghamton,2,42.09612,-75.97971
2267,Filoxenia Hotel,-1,37.01986,22.14679
2268,Comfort Inn & Suites Pottstown - Limerick,88,40.25488,-75.66056
2269,Hotel Silken Amara Plaza,-1,43.30748,-1.97918
2271,Holiday Inn Express Hotel & Suites Burlington,92,40.82519,-91.14154
2272,Tulip Inn Concorde Munich,-1,48.13628,11.58245
2273,Holiday Inn Express Calexico,92,32.70097,-115.49972
2274,Sky Ranch Lodge,-1,34.85228,-111.78992
2277,Postcard Inn Beach Resort & Marina,-1,24.94211,-80.60738
2278,Hampton Inn Iowa City/University Area,91,41.64853,-91.53951
2279,Hampton Inn & Suites Greenfield,91,42.58736,-72.62282
2280,Taj Campton Place,-1,37.7891,-122.4069
2282,Fairfield Inn & Suites Bryan College Station,89,30.63048,-96.33791
2285,Campanile Dole,-1,47.11007,5.49487
2287,La Quinta Inn Decatur,86,34.5609,-87.00214
2288,Hotel La Ninfa,-1,40.62638,14.58757
2289,Blue Country Resort,-1,17.9181,73.80545
2291,Ramada Red Deer Hotel and Suites,73,52.28558,-113.85389
2292,Seacrest Beachfront Holiday Apartments,-1,-27.9911,153.42953
2293,The Bellmoor Inn & Spa,-1,38.7147,-75.08183
2294,Memory Hotel,-1,59.40663,17.94751
2295,El Pueblo Lodge,-1,36.40968,-105.57179
2297,Holiday Inn Express Hotel & Suites Colby,92,39.36527,-101.02663
2299,Courtyard by Marriott Reading Wyomissing,90,40.33777,-75.95653
2300,Avenida Sofia Hotel & Spa,-1,41.23464,1.80371
2301,Best Western Plus Lacey Inn & Suites,82,47.0614,-122.76184
2302,Atlantic Sands Hotel & Conference Center,-1,38.71825,-75.07632
2305,Hotel Albatros,-1,40.64088,14.40734
2306,Hotel Sofitel New York,26,40.75561,-73.9819
2307,Classic Hotel,-1,35.17288,33.35745
2309,Windward Passage Hotel,-1,18.33934,-64.93701
2310,The Lord Nelson Hotel & Suites,-1,44.64275,-63.57998
2311,Hotel La Jolla  a Kimpton Hotel,47,32.85177,-117.25398
2312,Villa Luisa Hotel Residence Beauty Farm,-1,40.83028,14.08475
2313,Village Urban Resort Birmingham Dudley,-1,52.5139,-2.06901
2314,Hotel Berna,-1,45.48261,9.20327
2315,Clarion Collection Hotel Packhuset,58,56.66152,16.36632
2316,Mokinba Hotels King,-1,45.46575,9.17791
2317,Hotel at Old Town,-1,37.68796,-97.32788
2318,Grand Times Hotel Sherbrooke,-1,45.39838,-71.89659
2320,Hotel Micuras,-1,35.09812,139.07543
2321,Novotel Lille Centre Gares,51,50.6344,3.07325
2325,Comfort Inn Shelby,88,48.5108,-111.87481
2327,Mountaineer Lodge,-1,51.42496,-116.1771
2328,Hampton Inn & Suites Cashiers Sapphire Valley,91,35.12437,-83.05251
2329,Holiday Inn Monterrey Valle,92,25.65069,-100.33174
2330,Hotel La Palma,-1,40.55017,14.24384
2331,Golden Tulip Lyon Eurexpo,-1,45.71687,4.9281
2333,Holiday Inn Winnipeg South,92,49.84042,-97.1525
2334,Fireside Inn & Suites Gilford,-1,43.57856,-71.40147
2335,Radisson Paper Valley Hotel,65,44.26169,-88.40947
2336,Ruth Rimonim Hotel,-1,32.96082,35.49545
2339,Banff Park Lodge,-1,51.17771,-115.57382
2340,Mercure Le Havre Centre Bassin du Commerce,46,49.4901,0.11669
2341,Regency Fairbanks Hotel,-1,64.83974,-147.70634
2342,GuestHouse Inn & Suites Kelso,22,46.13772,-122.90246
2343,The Langstone,-1,50.83101,-0.97157
2345,West Wind Inn,-1,26.42838,-82.10234
2346,Best Western Plus Dunkirk & Fredonia Inn,82,42.45986,-79.31554
2348,Hotel Rio,-1,43.81004,7.75909
2351,Super 8 Motel - St. James,83,43.97104,-94.61869
2352,Delta Edmonton South,31,53.48133,-113.49346
2353,The Colonnade Hotel Back Bay,-1,42.34592,-71.08106
2354,Residence Inn by Marriott Houston Katy Mills,81,29.77576,-95.81313
2356,Fresco Cave Suites / Cappadocia - Special Class,-1,38.63271,34.90984
2358,Surfside Hotel and Suites,-1,42.05868,-70.17387
2359,Premiere Classe Limoges Nord,-1,45.88922,1.29086
2362,Comfort Inn,88,41.24791,-76.95978
2363,Bourbon Convention Ibirapuera,-1,-23.60839,-46.66666
2364,Kenwood Hall,-1,53.36436,-1.49067
2366,Quality Inn,84,31.05441,-93.23919
2367,Days Inn Elberton,85,34.10857,-82.86027
2369,Hotel Marco Polo,-1,45.43714,10.98863
2370,The Magnolia Hotel and Spa,-1,48.42343,-123.36709
2371,Comfort Inn And Suites Thatcher,88,32.84362,-109.74235
2372,Hilton Garden Inn Auburn Riverwatch,87,44.09902,-70.22591
2373,Ramada San Jose Downtown,73,37.32977,-121.88436
2374,The Morgan,-1,53.34572,-6.26091
2375,Campus Inn & Suites Eugene Downtown,-1,44.04991,-123.08644
2376,NM Lima Hotel,-1,-12.10729,-77.03605
2377,Alimounda Mare,-1,35.50898,27.20525
2380,InterContinental Lagos,50,6.43607,3.41112
2381,Hotel St. Moritz,-1,41.89813,12.48926
2382,Crowne Plaza Resort Colchester Five Lakes,71,51.78537,0.80626
2384,Britannia Hotel Edinburgh,-1,55.95069,-3.22257
2385,Grand Hotel La Batia,-1,37.98527,12.97473
2386,Agora Swiss Night,-1,46.51542,6.62802
2388,Locanda Costa Diva,-1,40.61101,14.53448
2390,Natura Algarve Club,-1,37.09163,-8.2207
2391,Southbridge Hotel and Conference Center,-1,42.07448,-72.02634
2393,Orhideea Residence & Spa,-1,44.44439,26.06557
2394,Casa sull'Albero,-1,45.8496,9.37733
2395,Royal Ramblas,-1,41.38445,2.17061
2396,Park Inn by Radisson Uppsala,65,59.86014,17.64633
2397,Hotel Durant,-1,39.18806,-106.82308
2399,Residhome Nice Promenade,-1,43.69471,7.252
2400,Century Southern Tower Hotel,-1,35.68629,139.70011
2401,Mantra Lorne,-1,-38.53629,143.97518
2402,InterContinental Sydney,50,-33.86288,151.21291
2405,Hotel ILUNION Menorca,-1,39.94212,3.95751
2406,Black Rock Oceanfront Resort,-1,48.93786,-125.55557
2407,Best Western Hotel International,0,49.60042,6.13337
2408,Quality Inn Cheraw,84,34.69711,-79.92424
2410,La Quinta Inn & Suites Lexington Park - Patuxent,86,38.29233,-76.49583
2411,Comfort Inn Brockville,88,44.59847,-75.70554
2413,The Spanish Court Hotel,-1,18.00833,-76.78419
2414,Club Siroco Apartments Serenity - Adults Only,-1,29.00457,-13.48326
2416,Hampton Inn Morehead,91,38.1891,-83.47701
2417,Hilton Garden Inn Danbury,87,41.39241,-73.52489
2418,Hallmark Inn Davis,-1,38.54229,-121.73964
2419,Modesto Hotel,-1,37.66954,-121.03651
2420,citizenM Rotterdam,-1,51.91972,4.48984
2421,Relais Regina Giovanna,-1,40.62771,14.35333
2423,The Fairmont Winnipeg,35,49.89533,-97.13737
2425,Grecotel Eva Palace,-1,39.66603,19.85565
2426,Turtle Beach by Rex Resorts - All Inclusive,-1,11.21458,-60.77668
2427,Apartamentos Fuerte Calaceite,-1,36.73586,-3.93413
2430,AT&T Hotel & Conference Center at the University of Texas,-1,30.28156,-97.73991
2431,Hilton Brisbane,3,-27.4695,153.02717
2434,Casa Via Mar Inn & Tennis Club,-1,34.17601,-119.20736
2435,Royal British  Princes Street,23,55.95307,-3.19075
2437,Vernon Downs Casino and Hotel,-1,43.06847,-75.52552
2438,Cumulus Hameenpuisto,-1,61.49311,23.75378
2440,HAtel Le Dauphin Saint-Hyacinthe,-1,45.63974,-72.96827
2441,Villa San Lucchese,-1,43.45541,11.14896
2442,The Morris Harvey House,-1,38.052,-81.10464
2443,Portland Regency Hotel & Spa,-1,43.65735,-70.25314
2444,Days Inn Corvallis,85,44.57509,-123.26248
2445,Value Place Ft. Walton Beach  FL,-1,30.44186,-86.59768
2446,Quality Inn & Suites Toppenish - Yakima Valley,84,46.37233,-120.32024
2448,River Lodge,-1,44.37129,-100.36172
2449,Hotel Hawaii,-1,44.25551,28.62133
2450,Albergo Villa Diana,-1,38.46595,14.95013
2451,Magnuson Hotel Franklin Square,20,47.12186,-88.56414
2452,Cookeville-Days Inn,85,36.13682,-85.50333
2453,The Garland,-1,34.145,-118.37021
2454,Sleep Inn & Suites Oakley,69,39.11957,-100.8106
2455,Okinawa Marriott Resort & Spa,2,26.53067,127.93477
2456,Huntingdon Marriott Hotel,2,52.33774,-0.21083
2458,Acqua Hotel Salou,-1,41.07065,1.14701
2459,Quality Inn Carlisle,84,40.23474,-77.13134
2460,Mykonos Beach Hotel,-1,37.43815,25.32731
2461,Al San Domenico Residence,-1,38.0166,12.51254
2466,Quality Inn,84,40.83562,-83.24523
2467,Welk Resort San Diego,-1,33.23291,-117.14383
2468,Hampton Inn Carlisle,91,40.2311,-77.14448
2469,Watertown Hotel - A Piece of Pineapple Hospitality,-1,47.65949,-122.31781
2470,AllegroItalia Golden Palace,-1,45.06746,7.67746
2472,Somerset Inn,-1,42.56125,-83.18055
2473,Comfort Inn Salt Lake City Draper,88,40.53211,-111.8913
2474,Rembrandt Hotel Atsugi,-1,35.44301,139.36498
2476,Hampton Inn Lewisburg,91,37.81449,-80.42759
2477,Millennium Broadway Hotel - Times Square,24,40.75689,-73.9849
2478,Baymont Inn and Suites Cortez,-1,37.34924,-108.55791
2480,Quality Inn & Suites,84,38.84121,-86.51024
2482,Abita Appartamenti,-1,38.01517,12.50585
2483,Los Gatos Lodge,-1,37.22586,-121.97237
2485,Charlevoix Inn & Suites,-1,45.32576,-85.23888
2488,RIU Montego Bay All Inclusive,-1,18.51592,-77.88169
2489,Kingsmills Hotel Inverness,-1,57.47269,-4.20886
2492,Holiday Inn Express Sweetwater,92,32.45108,-100.39273
2493,Comfort Inn And Suites,88,38.04218,-97.32648
2494,Paniolo Greens at Waikoloa Village,-1,19.92548,-155.79453
2495,Crowne Plaza Suzhou,71,31.32331,120.67705
2496,Novotel Caen Cote De Nacre,51,49.20034,-0.36038
2497,Aloft Birmingham Soho Square,49,33.47957,-86.78925
2498,Cassia Hotel,-1,42.00928,12.37888
2499,Inn at the Commons,-1,42.32924,-122.87178
2500,Residence Inn Little Rock Downtown,81,34.74599,-92.26578
2501,Sheraton Hamilton Hotel,76,43.25761,-79.8723
2502,Stamford Plaza Auckland,-1,-36.84553,174.76478
2503,NH Canciller Ayala Vitoria,-1,42.84347,-2.67674
2504,Scandic Arnen,39,60.38815,5.33129
2505,Sun Beach Resort Complex,-1,36.42254,28.15249
2506,Sheraton Grand Sacramento Hotel,76,38.5795,-121.49029
2507,Baymont Inn & Suites Port Huron,52,42.95548,-82.50202
2508,Dorstan Guest House,-1,55.93563,-3.16713
2509,Residence Inn by Marriott San Diego Downtown/Gaslamp Quarter,81,32.70897,-117.1592
2510,Days Inn Butte,85,45.98599,-112.50727
2511,Corail Suites Hotel,-1,36.84793,10.27639
2513,Cherry Orchard Inn,-1,37.35231,-122.00324
2514,Montvale Hotel,-1,47.65654,-117.42681
2515,The Langham  Chicago,12,41.88847,-87.6272
2517,Courtyard by Marriott Salisbury,90,35.65823,-80.46161
2518,Oak Tree Inn Wellington,-1,37.27537,-97.38458
2520,Radisson Lackawanna Station Hotel Scranton,65,41.40581,-75.66185
2521,HAtel Gray d'Albion BarriAre Cannes,-1,43.55208,7.02059
2522,City Club Hotel,-1,40.75577,-73.98229
2523,Candlewood Suites At MSU,64,42.70462,-84.50037
2526,Lakeway Resort and Spa,-1,30.37362,-97.98777
2527,Best Western Pinehurst Inn,0,35.15901,-79.41225
2529,Home from Home Guest House,-1,52.2168,0.12676
2530,Oxford Inn & Suites Lancaster,-1,34.67502,-118.16063
2531,Country Inn and Suites Dover  OH,-1,40.5275,-81.49702
2532,Memories Beach hotel,-1,36.41141,25.48238
2533,Econo Lodge Near Suncadia Resort,70,47.19262,-120.92027
2534,Fort Marcy Hotel Suites,-1,35.69083,-105.93233
2537,Molly Pitcher Inn,-1,40.35322,-74.07418
2538,Hurley's of Queenstown,-1,-45.03358,168.66804
2539,Sol Barbacan,-1,27.75999,-15.57924
2540,Hampton Inn Troy,91,40.0531,-84.23734
2541,Red Roof Inn Poughkeepsie,67,41.64864,-73.92628
2542,Viceroy Snowmass,-1,39.20929,-106.94581
2543,Hyatt Regency Lexington,1,38.04776,-84.5017
2544,Kilmurry Lodge Hotel,-1,52.66845,-8.55463
2546,Andaz Maui at Wailea Resort - a concept by Hyatt,1,20.69279,-156.44116
2547,Hyatt French Quarter,1,29.95507,-90.06967
2548,Fairfield Inn Ponca City,89,36.74432,-97.06726
2549,Zenit Don Yo,-1,41.64852,-0.88354
2550,Hotel Bristol,-1,45.48446,9.20632
2551,Clubhouse Hotel & Suites Pierre,-1,44.37177,-100.36254
2552,Spyglass Inn,-1,35.16293,-120.68814
2553,Extended Stay America - Newport News - I-64 - Jefferson Ave,72,37.11622,-76.50526
2555,River Valley Inn & Suites,-1,45.33209,-92.69276
2556,Holiday Inn Express Medford,92,42.31287,-122.86075
2557,Thalasia Costa de Murcia,-1,37.8377,-0.77835
2559,Radisson Blu Hotel  Nice,65,43.68429,7.23527
2560,NH Haiti El Rancho,-1,18.52104,-72.29114
2561,Hampton Inn Missoula,91,46.91009,-114.03561
2562,Aloft Sunnyvale,49,37.37623,-122.02919
2563,Millennium Hotel London Knightsbridge,24,51.49995,-0.15979
2564,Baymont Inn and Suites Kalamazoo,-1,42.26896,-85.65805
2565,Galileo Hotel,-1,45.46409,9.19617
2567,Ramada Inn Bangor,73,44.79201,-68.8099
2568,University Inn Seattle - Pineapple Hospitality,-1,47.65778,-122.31781
2570,Fairmont The Queen Elizabeth,35,45.50057,-73.5685
2571,Days Inn & Suites Monroe,85,41.92863,-83.35557
2572,The Mansfield Hotel,-1,40.75518,-73.981
2573,Quality Inn,84,44.07261,-87.70614
2574,HD Parque CristAbal Gran Canaria,-1,27.76116,-15.58153
2575,Hilton Hawaiian Village Waikiki Beach Resort,3,21.28373,-157.83549
2576,Baymont Inn & Suites Salem Roanoke Area,52,37.32136,-80.03262
2577,Quality Inn,84,44.38017,-79.70899
2579,Fairfield Inn & Suites Stevens Point,89,44.52326,-89.52241
2580,Zleep Hotel Billund,-1,55.74609,9.14157
2581,Best Western Las Mercedes,0,12.14559,-86.17229
2582,Park Inn by Radisson Peterborough,65,52.57149,-0.24357
2583,Four Points by Sheraton West Lafayette,76,40.46003,-86.93381
2584,Sleep Inn & Suites At Fort Lee,69,37.24922,-77.36529
2585,Quality Hotel LuleA,-1,65.58373,22.14729
2586,Village Urban Resort Coventry,-1,52.40287,-1.54807
2588,Mercure Hull Royal Hotel,46,53.74414,-0.34481
2589,Comfort Inn,88,41.30718,-84.36096
2590,Ramada Springfield North,73,39.83356,-89.60036
2591,Boutique Hotel Golden Triangle,-1,59.93692,30.32285
2593,Hampton Inn Warsaw,91,41.23611,-85.82059
2595,Celestine Hotel,-1,35.65152,139.74905
2596,Chipeta Solar Springs Resort,-1,38.14936,-107.75631
2599,Holiday Inn Suva,92,-18.14571,178.42329
2600,Hotel Valencia Santana Row,-1,37.32098,-121.9479
2601,Yosemite View Lodge,-1,37.67789,-119.76789
2602,Quality Inn,84,41.31874,-72.35909
2603,Holiday Inn Express Durban - Umhlanga,92,-29.72744,31.07046
2604,Bourbon Orleans Hotel,-1,29.95866,-90.06475
2605,Comfort Inn & Suites Tunkhannock,88,41.53315,-75.94831
2606,BH Parque 93,-1,4.6779,-74.05035
2607,Mayflower Park Hotel,-1,47.61223,-122.33853
2608,Ramada Powai Hotel And Convention Centre,73,19.13468,72.89784
2611,Salisbury Hotel,-1,40.76484,-73.9784
2613,Larkspur Landing Campbell - An All-Suite Hotel,-1,37.29417,-121.95992
2614,Andronikos Hotel,-1,37.43649,25.33354
2616,Scandic Park Sandefjord,39,59.12678,10.222
2617,Shilo Inn Suites Hotel - Killeen,-1,31.10822,-97.71488
2618,Village Inn Event Center,-1,36.03801,-80.37986
2620,Cambridge Beaches Resort & Spa,-1,32.30859,-64.8682
2621,Papaya Playa Project,-1,20.18053,-87.44554
2622,Comfort Inn & Suites Durango,88,37.24946,-107.8755
2623,Comfort Inn & Suites Fayetteville,88,36.07943,-94.20384
2624,Hilton Garden Inn Ogden UT,87,41.22545,-111.97037
2625,Sheraton Maui Resort & Spa,76,20.92636,-156.69316
2626,Club Quarters  Wall Street,-1,40.70686,-74.00907
2627,Ashland Hills Hotel & Suites,-1,42.1856,-122.66362
2628,Hotel Russell,-1,51.52254,-0.12544
2630,Days Inn Conference Center Southern Pines Pinehurst,85,35.17106,-79.40807
2631,Causeway Bay Hotel,-1,42.65846,-84.53649
2632,Best Western Masqhotel,0,46.15498,-1.14528
2633,Quality Inn & Suites Evergreen Hotel,84,44.31185,-69.813
2634,Ramada Topeka Downtown Hotel and Convention Center,73,39.05058,-95.6686
2635,Elme Hall Hotel,-1,52.64865,0.17292
2636,MCM Elegante Suites,-1,32.39951,-99.76476
2637,Western Heritage Inn of Bozeman,-1,45.67925,-111.02108
2638,Be Live Family Lanzarote Resort,-1,28.98654,-13.5106
2639,La Quinta Inn Piqua,86,40.14974,-84.23961
2642,Fairfield Inn & Suites Vernon,89,50.28891,-119.26571
2643,Crowne Plaza Moncton-Downtown,71,46.0866,-64.7838
2644,Waterfront Marina Residential,-1,-33.91123,18.42031
2645,Maranton House Hotel,-1,51.49245,-0.1907
2647,ibis Aberdeen Centre,45,57.14676,-2.09454
2648,Crowne Plaza Guadalajara,71,20.64556,-103.40714
2649,Days Inn & Suites Gunnison,85,38.53823,-106.94049
2650,Econo Lodge Cuba,70,42.22619,-78.27164
2652,Wingate by Wyndham Flint / Grand Blanc,60,42.94171,-83.67905
2653,Copthorne Hotel Newcastle,-1,54.9668,-1.61277
2654,FogCatcher Inn,-1,35.57589,-121.11343
2656,Days Inn Rhinelander Wi,85,45.63864,-89.41132
2657,Quality Hotel Wolverhampton,91,52.58773,-2.14533
2658,La Creole Beach HAtel & Spa,-1,16.20767,-61.50642
2659,Baymont Inn Sullivan,-1,38.21644,-91.16706
2660,Falcon Crest Lodge,-1,51.08282,-115.34221
2662,Santorini's Balcony Art Houses,-1,36.44137,25.42535
2664,West Edmonton Mall Inn,-1,53.52531,-113.62413
2666,Newcastle Gateshead Marriott Hotel Metrocentre,2,54.9584,-1.67642
2667,Comfort Inn,88,47.17861,-122.46325
2668,Hotel Nikko Xiamen,6,24.47111,118.16557
2670,The Taaras Beach & Spa Resort,-1,5.78406,103.01383
2672,Hotel Vila GalA Estoril,-1,38.70385,-9.39658
2673,The Dana on Mission Bay,-1,32.76592,-117.2377
2674,Aquis Mon Repos Palace,-1,39.61006,19.92761
2676,The Edgewater Resort and Spa,-1,-21.21663,-159.82915
2678,Coast Wenatchee Center Hotel,29,47.42773,-120.31392
2679,Avi Resort & Casino,-1,35.01643,-114.64412
2680,Crossland Tacoma - Puyallup,-1,47.20961,-122.29318
2682,Plaza Inn Doha,-1,25.28722,51.54395
2685,TRYP Melilla Puerto Hotel,-1,35.28861,-2.93784
2686,Cocoa Island by COMO,-1,3.9181,73.46924
2687,Red Deer Lodge Hotel and Conference Centre,-1,52.262,-113.81207
2688,Fairfield Inn & Suites by Marriott Tehachapi,89,35.13284,-118.45323
2689,Hotel Gdansk,-1,54.34927,18.66043
2690,Radisson Blu Hotel Latvija,65,56.95469,24.11736
2691,Novotel Valladolid,51,41.63593,-4.74738
2692,The Chatham Motel,-1,41.6828,-69.98875
2693,Palau Royal Resort,-1,7.33531,134.45824
2694,C'mon Inn Missoula,-1,46.9159,-114.0344
2695,Quality Hotel Porto Alegre,-1,-30.02823,-51.20227
2696,Mountain Side Hotel Whistler by Executive,-1,50.11416,-122.95565
2701,Dolce Atlanta Peachtree,-1,33.40382,-84.59442
2702,The Royal Hawaiian  A Luxury Collection Resort,-1,21.27794,-157.82969
2703,Waikiki Beach Marriott Resort,2,21.27273,-157.82333
2705,Homewood Suites Rochester Henrietta,77,43.07195,-77.62563
2706,Hotel Makarios,-1,36.38395,25.48282
2707,Best Western Territorial Inn & Suites,0,36.70831,-107.98525
2708,Blackwell Hotel,-1,47.67334,-116.77426
2710,La Quinta Inn & Suites Woodway - Waco South,86,31.51055,-97.19327
2711,InterContinental Milwaukee,50,43.04194,-87.91087
2712,Novotel Perth Langley,51,-31.95862,115.86803
2713,Knights Inn - Wabash,37,40.77861,-85.81967
2714,Scandic Bergen City,39,60.39124,5.3175
2715,Quality Inn Decherd / Winchester,84,35.20455,-86.09374
2716,Courtyard by Marriott Bloomington,90,39.16387,-86.5349
2717,La Quinta Inn & Suites Lumberton,86,30.25604,-94.2168
2718,Vista Eilat Hotel,-1,29.55383,34.96424
2719,Mercure Kakadu Crocodile Hotel,46,-12.66949,132.83341
2720,Avatar Hotel  a Joie de Vivre Hotel,-1,37.39201,-121.97793
2721,Comfort Inn Jamestown,88,42.11958,-79.24087
2722,Palazzo Murat Hotel,-1,40.6278,14.4816
2723,LaSalle Hotel,-1,30.67348,-96.37357
2724,Guesthouse Vineyard Inn Mcminnville,22,45.19375,-123.21141
2725,AS Hotel Monza,-1,45.58258,9.25032
2726,Hampton Inn Fayetteville,91,36.05508,-94.19677
2727,ALT Hotel Halifax Airport,-1,44.88645,-63.51581
2728,Comfort Inn Marshall Station,88,39.10934,-93.21478
2729,Four Seasons Resort Whistler,36,50.11924,-122.94434
2731,Best Western Hotel Syrene,0,40.54932,14.2471
2732,Scandic SvolvAr,39,68.23344,14.57105
2734,Econo Lodge Near Miller Hill Mall,70,46.81411,-92.17491
2735,Hotel Millenni,-1,41.37585,2.1669
2736,Positano Art Hotel Pasitea,-1,40.62847,14.48261
2737,Divi Flamingo Beach Resort & Casino,-1,12.1436,-68.2753
2738,Grand Hotel Mediterraneo,-1,43.76599,11.27235
2740,Americas Best Value Inn,62,41.72033,-86.25049
2741,Coconut Court Beach Hotel,-1,13.07621,-59.60198
2743,Hilton Bursa Convention Center & Spa,3,40.22716,29.0622
2745,Fiesta Hotel Milord,-1,38.97302,1.28503
2748,Scandic Victoria,39,61.1172,10.46423
2749,Comfort Inn Scottsbluff,88,41.86568,-103.63654
2751,Holiday Inn Grand Island-Midtown,92,40.89789,-98.33977
2752,Hampton Inn South Heritage Park,91,40.75687,-96.63931
2753,Econo Lodge Westley,70,37.54423,-121.26895
2754,Astoria Hotel and Suites,-1,47.1257,-104.69345
2755,Galileo Boutique Hotel,-1,-41.16877,-71.43894
2756,Hotel Finn,-1,55.69936,13.2113
2757,Quality Inn Rhinelander,84,45.63208,-89.42678
2758,The Cambridge Belfry,-1,52.22049,-0.06894
2763,The Kanata Inns,-1,53.69751,-113.20751
2764,HYATT house Pittsburgh-South Side,1,40.42743,-79.96294
2765,Mauna Lani Point,-1,19.93715,-155.87207
2766,RAMADA Hotel ZArich City,73,47.38254,8.50071
2768,Omena Hotel Tampere II,-1,61.49829,23.76888
2769,HYATT house Colorado Springs,1,38.91601,-104.82371
2770,Hotel Prestige,-1,40.61257,14.40035
2771,Comfort Suites Topeka,79,39.05086,-95.76492
2772,Hotel Neptun,-1,42.6599,18.05841
2773,Holiday Inn Gainesville-Lanier Centre,92,34.29833,-83.82322
2774,Super 8 Motel Livingston,83,45.64227,-110.57282
2775,Wine Country Inn Palisade,-1,39.11884,-108.36461
2777,Island House Hotel,-1,45.85093,-84.61507
2778,Hampton Inn & Suites Alexandria,91,45.86701,-95.37781
2779,Zurich Marriott Hotel,2,47.3824,8.54017
2780,Waikiki Gateway Hotel,-1,21.28318,-157.83146
2781,Hotel St. Marie,-1,29.95835,-90.06715
2785,Canad Inns Destination Centre Fort Garry,-1,49.82402,-97.15252
2786,Hotel North Woods,-1,44.28739,-73.98526
2787,ValentAn Son Bou Hotel & Apartments,-1,39.90793,4.07696
2788,Tivoli Lodge,-1,39.64023,-106.37087
2790,Fairfield Inn & Suites by Marriott El Centro,89,32.76701,-115.55405
2791,Hotel Tagomago,-1,38.96825,1.30053
2792,La Quinta Inn & Suites Alamo at East McAllen,86,26.19194,-98.12479
2793,Best Western Lakefront Hotel,0,44.0932,-87.65403
2794,Ramada Hotel & Conference Center MAnchen Messe,73,48.13742,11.68955
2795,Comfort Inn On the Bay,88,47.54283,-122.62978
2796,Hampton Inn & Suites Prescott Valley,91,34.58497,-112.34222
2797,Hyatt Regency Bethesda,1,38.98367,-77.09394
2798,Hotel De Paris Sanremo,-1,43.81413,7.77049
2799,James Cook Hotel Grand Chancellor,-1,-41.28432,174.77426
2800,Birkebeineren Hotel & Apartments,-1,61.12006,10.47825
2802,Hampton Inn and Suites Bastrop,91,30.10307,-97.33495
2803,Copthorne Hotel Sheffield,-1,53.3726,-1.47259
2804,BreakFree Beachpoint,-1,-27.99525,153.43022
2805,Rendezvous Reef Resort Port Douglas,-1,-16.51243,145.46294
2807,Parke Regency Hotel and Conference Center,-1,40.50145,-88.90435
2808,Value Place Austin  TX (Northwest),-1,30.45635,-97.79167
2809,Ammon Zeus,-1,40.07749,23.44796
2810,Courtyard by Marriott Pittsburgh Greensburg,90,40.3089,-79.58318
2813,Mowbray by the Sea,-1,-16.48724,145.46674
2814,Skene House HotelSuites-Rosemount,-1,57.14873,-2.10986
2815,Residence Inn Marriott Abilene,81,32.47435,-99.69082
2816,Hampton Inn Greenville,91,35.57468,-77.38631
2817,South Point Hotel  Casino  and Spa,-1,36.01198,-115.17254
2818,Trident  Nariman Point Mumbai,-1,18.92753,72.8203
2820,Coastlands Musgrave Hotel,29,-29.84058,30.99633
2821,Crookston Inn and Convention Center,-1,47.79288,-96.60909
2822,hotelmAller MAnchen,-1,48.13233,11.56539
2823,Hammamet Garden,-1,36.40095,10.56717
2824,Kervansaray Thermal-Convention Center & Spa,-1,40.20224,29.0237
2825,Citadines Trafalgar Square London,-1,51.50696,-0.12481
2826,Thon Hotel EU,-1,50.84414,4.37554
2827,Hotel Mare Nostrum,-1,38.89608,1.4121
2828,Ohtel,-1,-41.2921,174.78606
2830,Leeford Place Hotel,-1,50.93979,0.5015
2832,AmericInn Hotel & Suites Fairfield,43,40.98638,-91.9631
2833,Fairfield Inn & Suites Flint Fenton,89,42.80443,-83.73431
2836,Fairfield Inn & Suites by Marriott Carlsbad,89,32.39217,-104.22043
2837,Hapuna Beach Prince Hotel,23,19.99449,-155.82199
2839,Country Inn & Suites By Carlson Ankeny,-1,41.70475,-93.57195
2840,Southport Holiday Park,-1,53.60707,-3.05901
2843,Iguassu Express Hotel,-1,-25.56207,-54.56079
2844,Quality Hotel & Suites Nantes Beaujoire,-1,47.25356,-1.51356
2846,Hampton Inn Auburn,91,41.36138,-85.08595
2847,Hampton Inn Schenectady,91,42.81219,-73.94084
2849,SpringHill Suites Huntsville West/Research Park,78,34.75311,-86.69313
2850,The Francis Marion Hotel,-1,32.78621,-79.93656
2852,Comfort Inn And Suites,88,44.36583,-79.69634
2854,Holiday Inn Express and Suites Stamford,92,41.06928,-73.54903
2855,Mercure Nantes Centre Grand Hotel,46,47.21401,-1.55708
2856,Hotel Raffaello,-1,45.49481,9.14183
2857,Howard Johnson Fort Howe Plaza And Convention Center,54,45.27564,-66.07212
2858,Belle Epoque Hotel Victoria,-1,46.49518,7.67443
2859,La Quinta Inn & Suites Marble Falls,86,30.55872,-98.28155
2860,Crowne Plaza Resort Salalah,71,17.00943,54.15124
2861,The Reef House Palm Cove - MGallery Collection,-1,-16.74217,145.67121
2862,Hotel RAssli,-1,47.36922,8.54442
2863,Fairfield Inn & Suites by Marriott Cumberland,89,39.64765,-78.76126
2865,Comfort Suites Plainview,79,34.18386,-101.74378
2867,The Historic Summit Inn,-1,39.84942,-79.65629
2869,Quality Inn & Suites,84,42.5946,-114.46124
2871,Strawberry Valley Inn,-1,41.30364,-122.30805
2872,Holiday Inn Express Stockton Southeast,92,37.90314,-121.22067
2873,Fairfield Inn & Suites by Marriott Springfield,89,39.94185,-83.84003
2874,Best Western Spring Hill Inn & Suites,0,35.74725,-86.9355
2876,Holiday Inn Club Vacations at Lake Geneva Resort,92,42.61103,-88.39919
2877,Tune Hotel - Haymarket  Edinburgh,-1,55.94646,-3.21926
2878,Holiday Inn Express Pembroke,92,45.80028,-77.1158
2880,The Mansion at Ocean Edge,-1,41.77267,-70.05288
2881,Heritage Queenstown,-1,-45.03784,168.64284
2882,Royal Rimonim Dead Sea Hotel,-1,31.19694,35.3605
2883,Globales Club Almirante Farragut,-1,39.99913,3.7982
2884,Little America Hotel,-1,40.75737,-111.89115
2885,Hotel Club San Remo,-1,38.96739,1.29877
2886,BarcelA Isla Cristina,-1,37.19618,-7.32081
2887,Parmelia Hilton Perth,3,-31.95429,115.85278
2888,Life Gallery,-1,38.1141,23.8483
2890,Mantra South Bank,-1,-27.47792,153.02105
2891,The Westin Maui Resort & Spa,66,20.91955,-156.69392
2892,Ambassadeur Hotel,-1,59.74019,10.20123
2893,Extended Stay America Sacramento - Vacaville,72,38.38237,-121.93899
2894,Omni Corpus Christi Hotel,41,27.80011,-97.39128
2896,Punthill Brisbane,-1,-27.46355,153.02564
2897,Medplaya Hotel Balmoral,-1,36.5887,-4.53064
2898,Leonardo Royal Hotel DAsseldorf KAnigsallee,-1,51.2188,6.77724
2899,Charleston Capitol Hotel,-1,38.34991,-81.63094
2901,Holiday Inn Express Washington Court House,92,39.53454,-83.44446
2902,Comfort Inn & Suites Cambridge,88,38.55221,-76.03667
2906,Dubrovnik Palace,-1,42.65075,18.06109
2907,Comfort Inn & Suites Red Deer,88,52.28652,-113.85197
2908,Comfort Inn & Suites,88,32.44826,-83.75266
